Timestamp (ms),Latitude (deg),Longitude (deg),Altitude (m),Yaw (deg),Pitch (deg),Roll (deg)
0,51.66383056,39.27188611,10,0,0,0
100,51.6638300534716,39.2718871791945,10,0,0,0
200,51.6638285338865,39.2718903867781,10,0,0,0
300,51.6638260012446,39.2718957327504,10,0,0,0
400,51.6638224555459,39.2719032171111,10,0,0,0
500,51.6638178967904,39.2719128398598,10,0,0,0
600,51.6638123249781,39.2719246009958,10,0,0,0
700,51.6638057401091,39.2719385005182,10,0,0,0
800,51.6637981421833,39.2719545384262,10,0,0,0
900,51.6637895312007,39.2719727147187,10,0,0,0
1000,51.6637799071613,39.2719930293945,10,0,0,0
1100,51.6637692700652,39.2720154824522,10,0,0,0
1200,51.6637576199122,39.2720400738904,10,0,0,0
1300,51.6637449567024,39.2720668037072,10,0,0,0
1400,51.6637312804358,39.2720956719011,10,0,0,0
1500,51.6637165911124,39.27212667847,10,0,0,0
1600,51.6637008887321,39.2721598234119,10,0,0,0
1700,51.663684173295,39.2721951067246,10,0,0,0
1800,51.6636664448011,39.2722325284057,10,0,0,0
1900,51.6636477032503,39.2722720884526,10,0,0,0
2000,51.6636279486427,39.2723137868628,10,0,0,0
2100,51.6636071809781,39.2723576236335,10,0,0,0
2200,51.6635854002567,39.2724035987616,10,0,0,0
2300,51.6635626064784,39.2724517122443,10,0,0,0
2400,51.6635387996432,39.2725019640781,10,0,0,0
2500,51.6635139797511,39.2725543542599,10,0,0,0
2600,51.663488146802,39.2726088827859,10,0,0,0
2700,51.663461300796,39.2726655496527,10,0,0,0
2800,51.663433441733,39.2727243548565,10,0,0,0
2900,51.663404569613,39.2727852983932,10,0,0,0
3000,51.6633746844361,39.2728483802588,10,0,0,0
3100,51.6633437862021,39.2729136004492,10,0,0,0
3200,51.6633118749111,39.2729809589598,10,0,0,0
3300,51.6632789505631,39.2730504557863,10,0,0,0
3400,51.6632450131581,39.2731220909239,10,0,0,0
3500,51.6632100626959,39.273195864368,10,0,0,0
3600,51.6631740991767,39.2732717761134,10,0,0,0
3700,51.6631371226003,39.2733498261553,10,0,0,0
3800,51.6630996394953,39.2734289453109,10,0,0,0
3900,51.66306215639,39.2735080644013,10,0,0,0
4000,51.6630246732845,39.2735871834264,10,0,0,0
4100,51.6629871901787,39.2736663023862,10,0,0,0
4200,51.6629497070727,39.2737454212807,10,0,0,0
4300,51.6629122239665,39.2738245401099,10,0,0,0
4400,51.66287474086,39.2739036588739,10,0,0,0
4500,51.6628372577533,39.2739827775726,10,0,0,0
4600,51.6627997746463,39.274061896206,10,0,0,0
4700,51.6627622915391,39.2741410147741,10,0,0,0
4800,51.6627248084317,39.2742201332769,10,0,0,0
4900,51.662687325324,39.2742992517144,10,0,0,0
5000,51.6626498422161,39.2743783700867,10,0,0,0
5100,51.662612359108,39.2744574883937,10,0,0,0
5200,51.6625748759996,39.2745366066354,10,0,0,0
5300,51.6625373928909,39.2746157248118,10,0,0,0
5400,51.662499909782,39.2746948429229,10,0,0,0
5500,51.6624624266729,39.2747739609688,10,0,0,0
5600,51.6624249435636,39.2748530789493,10,0,0,0
5700,51.6623874604539,39.2749321968646,10,0,0,0
5800,51.6623499773441,39.2750113147146,10,0,0,0
5900,51.662312494234,39.2750904324993,10,0,0,0
6000,51.6622750111237,39.2751695502188,10,0,0,0
6100,51.6622375280131,39.275248667873,10,0,0,0
6200,51.6622000449023,39.2753277854618,10,0,0,0
6300,51.6621625617912,39.2754069029855,10,0,0,0
6400,51.66212507868,39.2754860204438,10,0,0,0
6500,51.6620875955684,39.2755651378368,10,0,0,0
6600,51.6620501124567,39.2756442551646,10,0,0,0
6700,51.6620126293447,39.2757233724271,10,0,0,0
6800,51.6619751462324,39.2758024896243,10,0,0,0
6900,51.6619376631199,39.2758816067562,10,0,0,0
7000,51.6619001800072,39.2759607238229,10,0,0,0
7100,51.6618626968942,39.2760398408242,10,0,0,0
7200,51.661825213781,39.2761189577603,10,0,0,0
7300,51.6617877306675,39.2761980746311,10,0,0,0
7400,51.6617502475538,39.2762771914367,10,0,0,0
7500,51.6617127644399,39.2763563081769,10,0,0,0
7600,51.6616752813257,39.2764354248519,10,0,0,0
7700,51.6616377982113,39.2765145414616,10,0,0,0
7800,51.6616003150967,39.276593658006,10,0,0,0
7900,51.6615628319818,39.2766727744852,10,0,0,0
8000,51.6615253488666,39.276751890899,10,0,0,0
8100,51.6614878657512,39.2768310072476,10,0,0,0
8200,51.6614503826356,39.2769101235309,10,0,0,0
8300,51.6614128995198,39.276989239749,10,0,0,0
8400,51.6613754164037,39.2770683559017,10,0,0,0
8500,51.6613379332873,39.2771474719892,10,0,0,0
8600,51.6613004501707,39.2772265880114,10,0,0,0
8700,51.6612629670539,39.2773057039683,10,0,0,0
8800,51.6612254839369,39.27738481986,10,0,0,0
8900,51.6611880008196,39.2774639356864,10,0,0,0
9000,51.661150517702,39.2775430514475,10,0,0,0
9100,51.6611130345842,39.2776221671433,10,0,0,0
9200,51.6610755514662,39.2777012827738,10,0,0,0
9300,51.6610380683479,39.2777803983391,10,0,0,0
9400,51.6610005852294,39.2778595138391,10,0,0,0
9500,51.6609631021107,39.2779386292738,10,0,0,0
9600,51.6609256189917,39.2780177446432,10,0,0,0
9700,51.6608881358725,39.2780968599474,10,0,0,0
9800,51.660850652753,39.2781759751863,10,0,0,0
9900,51.6608131696333,39.2782550903599,10,0,0,0
10000,51.6607756865133,39.2783342054682,10,0,0,0
10100,51.6607382033932,39.2784133205113,10,0,0,0
10200,51.6607007202727,39.2784924354891,10,0,0,0
10300,51.660663237152,39.2785715504016,10,0,0,0
10400,51.6606257540311,39.2786506652489,10,0,0,0
10500,51.66058827091,39.2787297800308,10,0,0,0
10600,51.6605507877886,39.2788088947475,10,0,0,0
10700,51.660513304667,39.2788880093989,10,0,0,0
10800,51.6604758215451,39.2789671239851,10,0,0,0
10900,51.660438338423,39.279046238506,10,0,0,0
11000,51.6604008553006,39.2791253529616,10,0,0,0
11100,51.660363372178,39.2792044673519,10,0,0,0
11200,51.6603258890552,39.2792835816769,10,0,0,0
11300,51.6602884059321,39.2793626959367,10,0,0,0
11400,51.6602509228088,39.2794418101312,10,0,0,0
11500,51.6602134396852,39.2795209242604,10,0,0,0
11600,51.6601759565614,39.2796000383244,10,0,0,0
11700,51.6601384734374,39.2796791523231,10,0,0,0
11800,51.6601009903131,39.2797582662565,10,0,0,0
11900,51.6600635071886,39.2798373801247,10,0,0,0
12000,51.6600260240638,39.2799164939275,10,0,0,0
12100,51.6599885409388,39.2799956076651,10,0,0,0
12200,51.6599510578136,39.2800747213375,10,0,0,0
12300,51.6599135746881,39.2801538349445,10,0,0,0
12400,51.6598760915624,39.2802329484863,10,0,0,0
12500,51.6598386084364,39.2803120619628,10,0,0,0
12600,51.6598011253102,39.280391175374,10,0,0,0
12700,51.6597636421838,39.28047028872,10,0,0,0
12800,51.6597261590571,39.2805494020007,10,0,0,0
12900,51.6596886759301,39.2806285152162,10,0,0,0
13000,51.659651192803,39.2807076283663,10,0,0,0
13100,51.6596137096756,39.2807867414512,10,0,0,0
13200,51.6595762265479,39.2808658544708,10,0,0,0
13300,51.65953874342,39.2809449674252,10,0,0,0
13400,51.6595012602919,39.2810240803142,10,0,0,0
13500,51.6594637771635,39.281103193138,10,0,0,0
13600,51.6594262940349,39.2811823058966,10,0,0,0
13700,51.6593888109061,39.2812614185898,10,0,0,0
13800,51.659351327777,39.2813405312179,10,0,0,0
13900,51.6593138446476,39.2814196437806,10,0,0,0
14000,51.659276361518,39.281498756278,10,0,0,0
14100,51.6592388783882,39.2815778687102,10,0,0,0
14200,51.6592013952582,39.2816569810771,10,0,0,0
14300,51.6591639121279,39.2817360933788,10,0,0,0
14400,51.6591264289973,39.2818152056152,10,0,0,0
14500,51.6590889458666,39.2818943177863,10,0,0,0
14600,51.6590514627355,39.2819734298921,10,0,0,0
14700,51.6590139796043,39.2820525419327,10,0,0,0
14800,51.6589764964728,39.282131653908,10,0,0,0
14900,51.6589390133411,39.2822107658181,10,0,0,0
15000,51.6589015302091,39.2822898776629,10,0,0,0
15100,51.6588640470769,39.2823689894424,10,0,0,0
15200,51.6588265639444,39.2824481011566,10,0,0,0
15300,51.6587890808117,39.2825272128056,10,0,0,0
15400,51.6587515976787,39.2826063243893,10,0,0,0
15500,51.6587141145456,39.2826854359077,10,0,0,0
15600,51.6586766314121,39.2827645473609,10,0,0,0
15700,51.6586391482785,39.2828436587488,10,0,0,0
15800,51.6586016651446,39.2829227700714,10,0,0,0
15900,51.6585641820104,39.2830018813288,10,0,0,0
16000,51.6585266988761,39.2830809925209,10,0,0,0
16100,51.6584892157414,39.2831601036477,10,0,0,0
16200,51.6584517326065,39.2832392147093,10,0,0,0
16300,51.6584142494714,39.2833183257056,10,0,0,0
16400,51.6583767663361,39.2833974366366,10,0,0,0
16500,51.6583392832005,39.2834765475024,10,0,0,0
16600,51.6583018000647,39.2835556583029,10,0,0,0
16700,51.6582643169286,39.2836347690382,10,0,0,0
16800,51.6582268337923,39.2837138797082,10,0,0,0
16900,51.6581893506557,39.2837929903129,10,0,0,0
17000,51.6581518675189,39.2838721008523,10,0,0,0
17100,51.6581143843819,39.2839512113265,10,0,0,0
17200,51.6580769012446,39.2840303217354,10,0,0,0
17300,51.6580394181071,39.2841094320791,10,0,0,0
17400,51.6580019349694,39.2841885423575,10,0,0,0
17500,51.6579644518314,39.2842676525706,10,0,0,0
17600,51.6579269686932,39.2843467627184,10,0,0,0
17700,51.6578894855547,39.284425872801,10,0,0,0
17800,51.657852002416,39.2845049828184,10,0,0,0
17900,51.657814519277,39.2845840927704,10,0,0,0
18000,51.6577770361378,39.2846632026572,10,0,0,0
18100,51.6577395529984,39.2847423124788,10,0,0,0
18200,51.6577020698587,39.2848214222351,10,0,0,0
18300,51.6576645867187,39.2849005319261,10,0,0,0
18400,51.6576271035786,39.2849796415518,10,0,0,0
18500,51.6575896204382,39.2850587511123,10,0,0,0
18600,51.6575521372975,39.2851378606075,10,0,0,0
18700,51.6575146541567,39.2852169700375,10,0,0,0
18800,51.6574776775445,39.2852950103572,10,0,0,0
18900,51.65744171399,39.285370912525,10,0,0,0
19000,51.6574067634931,39.285444676546,10,0,0,0
19100,51.6573728260539,39.2855163024251,10,0,0,0
19200,51.6573399016724,39.2855857901672,10,0,0,0
19300,51.6573079903486,39.2856531397768,10,0,0,0
19400,51.6572770920825,39.2857183512585,10,0,0,0
19500,51.6572472068742,39.2857814246167,10,0,0,0
19600,51.6572183347237,39.2858423598555,10,0,0,0
19700,51.6571904756309,39.2859011569791,10,0,0,0
19800,51.6571636295959,39.2859578159913,10,0,0,0
19900,51.6571377966188,39.286012336896,10,0,0,0
20000,51.6571129766994,39.2860647196968,10,0,0,0
20100,51.6570891698379,39.2861149643972,10,0,0,0
20200,51.6570663760342,39.2861630710006,10,0,0,0
20300,51.6570445952884,39.2862090395102,10,0,0,0
20400,51.6570238276005,39.286252869929,10,0,0,0
20500,51.6570040729704,39.2862945622601,10,0,0,0
20600,51.6569853313983,39.2863341165061,10,0,0,0
20700,51.656967602884,39.2863715326697,10,0,0,0
20800,51.6569508874276,39.2864068107535,10,0,0,0
20900,51.6569351850292,39.2864399507598,10,0,0,0
21000,51.6569204956887,39.2864709526908,10,0,0,0
21100,51.6569068194061,39.2864998165486,10,0,0,0
21200,51.6568941561814,39.2865265423351,10,0,0,0
21300,51.6568825060147,39.2865511300521,10,0,0,0
21400,51.656871868906,39.2865735797012,10,0,0,0
21500,51.6568622448552,39.286593891284,10,0,0,0
21600,51.6568536338624,39.2866120648018,10,0,0,0
21700,51.6568460359275,39.2866281002558,10,0,0,0
21800,51.6568394510507,39.2866419976471,10,0,0,0
21900,51.6568338792318,39.2866537569767,10,0,0,0
22000,51.6568293204708,39.2866633782452,10,0,0,0
22100,51.6568257747679,39.2866708614534,10,0,0,0
22200,51.6568232421229,39.2866762066018,10,0,0,0
22300,51.6568217225359,39.2866794136907,10,0,0,0
22400,51.656821216007,39.2866804827203,10,0,0,0
22500,51.656821216007,39.2866804827203,10,0,0,0
22600,51.656821216007,39.2866804827203,10,0,0,0
22700,51.656821216007,39.2866804827203,10,0,0,0
22800,51.656821216007,39.2866804827203,10,0,0,0
22900,51.656821216007,39.2866804827203,10,0,0,0
23000,51.656821216007,39.2866804827203,10,0,0,0
23100,51.656821216007,39.2866804827203,10,0,0,0
23200,51.656821216007,39.2866804827203,10,0,0,0
23300,51.656821216007,39.2866804827203,10,0,0,0
23400,51.656821216007,39.2866804827203,10,0,0,0
23500,51.656821216007,39.2866804827203,10,0,0,0
23600,51.656821216007,39.2866804827203,10,0,0,0
23700,51.656821216007,39.2866804827203,10,0,0,0
23800,51.656821216007,39.2866804827203,10,0,0,0
23900,51.656821216007,39.2866804827203,10,0,0,0
24000,51.656821216007,39.2866804827203,10,0,0,0
24100,51.656821216007,39.2866804827203,10,0,0,0
24200,51.656821216007,39.2866804827203,10,0,0,0
24300,51.656821216007,39.2866804827203,10,0,0,0
24400,51.656821216007,39.2866804827203,10,0,0,0
24500,51.656821216007,39.2866804827203,10,0,0,0
24600,51.656821216007,39.2866804827203,10,0,0,0
24700,51.656821216007,39.2866804827203,10,0,0,0
24800,51.656821216007,39.2866804827203,10,0,0,0
24900,51.656821216007,39.2866804827203,10,0,0,0
25000,51.656821216007,39.2866804827203,10,0,0,0
25100,51.656821216007,39.2866804827203,10,0,0,0
25200,51.656821216007,39.2866804827203,10,0,0,0
25300,51.656821216007,39.2866804827203,10,0,0,0
25400,51.656821216007,39.2866804827203,10,0,0,0
25500,51.656821216007,39.2866804827203,10,0,0,0
25600,51.656821216007,39.2866804827203,10,0,0,0
25700,51.656821216007,39.2866804827203,10,0,0,0
25800,51.656821216007,39.2866804827203,10,0,0,0
25900,51.656821216007,39.2866804827203,10,0,0,0
26000,51.656821216007,39.2866804827203,10,0,0,0
26100,51.656821216007,39.2866804827203,10,0,0,0
26200,51.656821216007,39.2866804827203,10,0,0,0
26300,51.656821216007,39.2866804827203,10,0,0,0
26400,51.656821216007,39.2866804827203,10,0,0,0
26500,51.656821216007,39.2866804827203,10,0,0,0
26600,51.656821216007,39.2866804827203,10,0,0,0
26700,51.656821216007,39.2866804827203,10,0,0,0
26800,51.656821216007,39.2866804827203,10,0,0,0
26900,51.656821216007,39.2866804827203,10,0,0,0
27000,51.656821216007,39.2866804827203,10,0,0,0
27100,51.656821216007,39.2866804827203,10,0,0,0
27200,51.656821216007,39.2866804827203,10,0,0,0
27300,51.656821216007,39.2866804827203,10,0,0,0
27400,51.656821216007,39.2866804827203,10,0,0,0
27500,51.656821216007,39.2866804827203,10,0,0,0
27600,51.656821216007,39.2866804827203,10,0,0,0
27700,51.656821216007,39.2866804827203,10,0,0,0
27800,51.656821216007,39.2866804827203,10,0,0,0
27900,51.656821216007,39.2866804827203,10,0,0,0
28000,51.656821216007,39.2866804827203,10,0,0,0
28100,51.656821216007,39.2866804827203,10,0,0,0
28200,51.656821216007,39.2866804827203,10,0,0,0
28300,51.656821216007,39.2866804827203,10,0,0,0
28400,51.656821216007,39.2866804827203,10,0,0,0
28500,51.656821216007,39.2866804827203,10,0,0,0
28600,51.656821216007,39.2866804827203,10,0,0,0
28700,51.656821216007,39.2866804827203,10,0,0,0
28800,51.656821216007,39.2866804827203,10,0,0,0
28900,51.656821216007,39.2866804827203,10,0,0,0
29000,51.656821216007,39.2866804827203,10,0,0,0
29100,51.656821216007,39.2866804827203,10,0,0,0
29200,51.656821216007,39.2866804827203,10,0,0,0
29300,51.656821216007,39.2866804827203,10,0,0,0
29400,51.656821216007,39.2866804827203,10,0,0,0
29500,51.656821216007,39.2866804827203,10,0,0,0
29600,51.656821216007,39.2866804827203,10,0,0,0
29700,51.656821216007,39.2866804827203,10,0,0,0
29800,51.656821216007,39.2866804827203,10,0,0,0
29900,51.656821216007,39.2866804827203,10,0,0,0
30000,51.656821216007,39.2866804827203,10,0,0,0
30100,51.656821216007,39.2866804827203,10,0,0,0
30200,51.656821216007,39.2866804827203,10,0,0,0
30300,51.656821216007,39.2866804827203,10,0,0,0
30400,51.656821216007,39.2866804827203,10,0,0,0
30500,51.656821216007,39.2866804827203,10,0,0,0
30600,51.656821216007,39.2866804827203,10,0,0,0
30700,51.656821216007,39.2866804827203,10,0,0,0
30800,51.656821216007,39.2866804827203,10,0,0,0
30900,51.656821216007,39.2866804827203,10,0,0,0
31000,51.656821216007,39.2866804827203,10,0,0,0
31100,51.656821216007,39.2866804827203,10,0,0,0
31200,51.656821216007,39.2866804827203,10,0,0,0
31300,51.656821216007,39.2866804827203,10,0,0,0
31400,51.656821216007,39.2866804827203,10,0,0,0
31500,51.656821216007,39.2866804827203,10,0,0,0
31600,51.656821216007,39.2866804827203,10,0,0,0
31700,51.656821216007,39.2866804827203,10,0,0,0
31800,51.656821216007,39.2866804827203,10,0,0,0
31900,51.656821216007,39.2866804827203,10,0,0,0
32000,51.656821216007,39.2866804827203,10,0,0,0
32100,51.656821216007,39.2866804827203,10,0,0,0
32200,51.656821216007,39.2866804827203,10,0,0,0
32300,51.656821216007,39.2866804827203,10,0,0,0
32400,51.656821216007,39.2866804827203,10,0,0,0
32500,51.656821216007,39.2866804827203,10,0,0,0
32600,51.656821216007,39.2866804827203,10,0,0,0
32700,51.656821216007,39.2866804827203,10,0,0,0
32800,51.656821216007,39.2866804827203,10,0,0,0
32900,51.656821216007,39.2866804827203,10,0,0,0
33000,51.656821216007,39.2866804827203,10,0,0,0
33100,51.656821216007,39.2866804827203,10,0,0,0
33200,51.656821216007,39.2866804827203,10,0,0,0
33300,51.656821216007,39.2866804827203,10,0,0,0
33400,51.656821216007,39.2866804827203,10,0,0,0
33500,51.656821216007,39.2866804827203,10,0,0,0
33600,51.656821216007,39.2866804827203,10,0,0,0
33700,51.656821216007,39.2866804827203,10,0,0,0
33800,51.656821216007,39.2866804827203,10,0,0,0
33900,51.656821216007,39.2866804827203,10,0,0,0
34000,51.656821216007,39.2866804827203,10,0,0,0
34100,51.656821216007,39.2866804827203,10,0,0,0
34200,51.656821216007,39.2866804827203,10,0,0,0
34300,51.656821216007,39.2866804827203,10,0,0,0
34400,51.656821216007,39.2866804827203,10,0,0,0
34500,51.656821216007,39.2866804827203,10,0,0,0
34600,51.656821216007,39.2866804827203,10,0,0,0
34700,51.656821216007,39.2866804827203,10,0,0,0
34800,51.656821216007,39.2866804827203,10,0,0,0
34900,51.656821216007,39.2866804827203,10,0,0,0
35000,51.656821216007,39.2866804827203,10,0,0,0
35100,51.656821216007,39.2866804827203,10,0,0,0
35200,51.656821216007,39.2866804827203,10,0,0,0
35300,51.656821216007,39.2866804827203,10,0,0,0
35400,51.656821216007,39.2866804827203,10,0,0,0
35500,51.656821216007,39.2866804827203,10,0,0,0
35600,51.656821216007,39.2866804827203,10,0,0,0
35700,51.656821216007,39.2866804827203,10,0,0,0
35800,51.656821216007,39.2866804827203,10,0,0,0
35900,51.656821216007,39.2866804827203,10,0,0,0
36000,51.656821216007,39.2866804827203,10,0,0,0
36100,51.656821216007,39.2866804827203,10,0,0,0
36200,51.656821216007,39.2866804827203,10,0,0,0
36300,51.656821216007,39.2866804827203,10,0,0,0
36400,51.656821216007,39.2866804827203,10,0,0,0
36500,51.656821216007,39.2866804827203,10,0,0,0
36600,51.656821216007,39.2866804827203,10,0,0,0
36700,51.656821216007,39.2866804827203,10,0,0,0
36800,51.656821216007,39.2866804827203,10,0,0,0
36900,51.656821216007,39.2866804827203,10,0,0,0
37000,51.656821216007,39.2866804827203,10,0,0,0
37100,51.656821216007,39.2866804827203,10,0,0,0
37200,51.656821216007,39.2866804827203,10,0,0,0
37300,51.656821216007,39.2866804827203,10,0,0,0
37400,51.656821216007,39.2866804827203,10,0,0,0
37500,51.656820709478,39.2866815517498,10,0,0,0
37600,51.656819189891,39.2866847588385,10,0,0,0
37700,51.656816657246,39.2866901039861,10,0,0,0
37800,51.6568131115431,39.2866975871922,10,0,0,0
37900,51.6568085527821,39.2867072084564,10,0,0,0
38000,51.6568029809632,39.2867189677779,10,0,0,0
38100,51.6567963960862,39.2867328651561,10,0,0,0
38200,51.6567887981514,39.2867489005899,10,0,0,0
38300,51.6567801871584,39.2867670740783,10,0,0,0
38400,51.6567705631075,39.2867873856201,10,0,0,0
38500,51.6567599259985,39.286809835214,10,0,0,0
38600,51.6567482758316,39.2868344228583,10,0,0,0
38700,51.6567356126066,39.2868611485516,10,0,0,0
38800,51.6567219363235,39.2868900122919,10,0,0,0
38900,51.6567072469825,39.2869210140774,10,0,0,0
39000,51.6566915445834,39.286954153906,10,0,0,0
39100,51.6566748291263,39.2869894317754,10,0,0,0
39200,51.656657100611,39.2870268476834,10,0,0,0
39300,51.6566383590378,39.2870664016274,10,0,0,0
39400,51.6566186044064,39.2871080936047,10,0,0,0
39500,51.6565978367169,39.2871519236126,10,0,0,0
39600,51.6565760559694,39.2871978916482,10,0,0,0
39700,51.6565532621637,39.2872459977083,10,0,0,0
39800,51.6565294552999,39.2872962417898,10,0,0,0
39900,51.656504635378,39.2873486238893,10,0,0,0
40000,51.6564788023979,39.2874031440032,10,0,0,0
40100,51.6564519563597,39.287459802128,10,0,0,0
40200,51.6564240972632,39.2875185982599,10,0,0,0
40300,51.6563952251086,39.2875795323949,10,0,0,0
40400,51.6563653398958,39.2876426045289,10,0,0,0
40500,51.6563344416247,39.2877078146577,10,0,0,0
40600,51.6563025302955,39.287775162777,10,0,0,0
40700,51.656269605908,39.2878446488823,10,0,0,0
40800,51.6562356684621,39.2879162729689,10,0,0,0
40900,51.656200717958,39.287990035032,10,0,0,0
41000,51.6561647543956,39.2880659350666,10,0,0,0
41100,51.6561277777749,39.2881439730678,10,0,0,0
41200,51.6560902946248,39.2882230800179,10,0,0,0
41300,51.6560528114746,39.2883021869027,10,0,0,0
41400,51.6560153283241,39.2883812937223,10,0,0,0
41500,51.6559778451733,39.2884604004766,10,0,0,0
41600,51.6559403620223,39.2885395071657,10,0,0,0
41700,51.6559028788711,39.2886186137895,10,0,0,0
41800,51.6558653957196,39.2886977203481,10,0,0,0
41900,51.6558279125679,39.2887768268413,10,0,0,0
42000,51.655790429416,39.2888559332694,10,0,0,0
42100,51.6557529462638,39.2889350396322,10,0,0,0
42200,51.6557154631114,39.2890141459297,10,0,0,0
42300,51.6556779799587,39.289093252162,10,0,0,0
42400,51.6556404968058,39.289172358329,10,0,0,0
42500,51.6556030136526,39.2892514644307,10,0,0,0
42600,51.6555655304992,39.2893305704672,10,0,0,0
42700,51.6555280473456,39.2894096764385,10,0,0,0
42800,51.6554905641917,39.2894887823445,10,0,0,0
42900,51.6554530810376,39.2895678881852,10,0,0,0
43000,51.6554155978832,39.2896469939607,10,0,0,0
43100,51.6553781147286,39.2897260996709,10,0,0,0
43200,51.6553406315738,39.2898052053159,10,0,0,0
43300,51.6553031484187,39.2898843108956,10,0,0,0
43400,51.6552656652634,39.2899634164101,10,0,0,0
43500,51.6552281821078,39.2900425218593,10,0,0,0
43600,51.655190698952,39.2901216272432,10,0,0,0
43700,51.655153215796,39.2902007325619,10,0,0,0
43800,51.6551157326397,39.2902798378154,10,0,0,0
43900,51.6550782494832,39.2903589430036,10,0,0,0
44000,51.6550407663265,39.2904380481265,10,0,0,0
44100,51.6550032831694,39.2905171531842,10,0,0,0
44200,51.6549658000122,39.2905962581767,10,0,0,0
44300,51.6549283168547,39.2906753631039,10,0,0,0
44400,51.654890833697,39.2907544679658,10,0,0,0
44500,51.654853350539,39.2908335727625,10,0,0,0
44600,51.6548158673808,39.2909126774939,10,0,0,0
44700,51.6547783842224,39.2909917821601,10,0,0,0
44800,51.6547409010637,39.291070886761,10,0,0,0
44900,51.6547034179047,39.2911499912967,10,0,0,0
45000,51.6546659347456,39.2912290957671,10,0,0,0
45100,51.6546284515862,39.2913082001722,10,0,0,0
45200,51.6545909684265,39.2913873045122,10,0,0,0
45300,51.6545534852666,39.2914664087868,10,0,0,0
45400,51.6545160021065,39.2915455129962,10,0,0,0
45500,51.6544785189461,39.2916246171404,10,0,0,0
45600,51.6544410357855,39.2917037212193,10,0,0,0
45700,51.6544035526247,39.291782825233,10,0,0,0
45800,51.6543660694635,39.2918619291814,10,0,0,0
45900,51.6543285863022,39.2919410330645,10,0,0,0
46000,51.6542911031406,39.2920201368824,10,0,0,0
46100,51.6542536199788,39.2920992406351,10,0,0,0
46200,51.6542161368168,39.2921783443225,10,0,0,0
46300,51.6541786536545,39.2922574479447,10,0,0,0
46400,51.6541411704919,39.2923365515016,10,0,0,0
46500,51.6541036873292,39.2924156549932,10,0,0,0
46600,51.6540662041662,39.2924947584196,10,0,0,0
46700,51.6540287210029,39.2925738617808,10,0,0,0
46800,51.6539912378394,39.2926529650767,10,0,0,0
46900,51.6539537546756,39.2927320683074,10,0,0,0
47000,51.6539162715117,39.2928111714728,10,0,0,0
47100,51.6538787883475,39.2928902745729,10,0,0,0
47200,51.653841305183,39.2929693776079,10,0,0,0
47300,51.6538038220183,39.2930484805775,10,0,0,0
47400,51.6537663388533,39.2931275834819,10,0,0,0
47500,51.6537288556882,39.2932066863211,10,0,0,0
47600,51.6536913725227,39.293285789095,10,0,0,0
47700,51.6536538893571,39.2933648918037,10,0,0,0
47800,51.6536164061912,39.2934439944471,10,0,0,0
47900,51.653578923025,39.2935230970253,10,0,0,0
48000,51.6535414398586,39.2936021995382,10,0,0,0
48100,51.653503956692,39.2936813019859,10,0,0,0
48200,51.6534664735251,39.2937604043683,10,0,0,0
48300,51.653428990358,39.2938395066855,10,0,0,0
48400,51.6533915071906,39.2939186089375,10,0,0,0
48500,51.6533540240231,39.2939977111242,10,0,0,0
48600,51.6533165408552,39.2940768132456,10,0,0,0
48700,51.6532790576872,39.2941559153018,10,0,0,0
48800,51.6532415745189,39.2942350172928,10,0,0,0
48900,51.6532040913503,39.2943141192185,10,0,0,0
49000,51.6531666081815,39.2943932210789,10,0,0,0
49100,51.6531291250125,39.2944723228741,10,0,0,0
49200,51.6530916418432,39.2945514246041,10,0,0,0
49300,51.6530541586737,39.2946305262688,10,0,0,0
49400,51.6530166755039,39.2947096278683,10,0,0,0
49500,51.6529791923339,39.2947887294025,10,0,0,0
49600,51.6529417091637,39.2948678308715,10,0,0,0
49700,51.6529042259932,39.2949469322753,10,0,0,0
49800,51.6528667428225,39.2950260336138,10,0,0,0
49900,51.6528292596516,39.295105134887,10,0,0,0
50000,51.6527917764803,39.295184236095,10,0,0,0
50100,51.6527542933089,39.2952633372378,10,0,0,0
50200,51.6527168101372,39.2953424383153,10,0,0,0
50300,51.6526793269653,39.2954215393276,10,0,0,0
50400,51.6526418437931,39.2955006402746,10,0,0,0
50500,51.6526043606207,39.2955797411564,10,0,0,0
50600,51.6525668774481,39.2956588419729,10,0,0,0
50700,51.6525293942752,39.2957379427242,10,0,0,0
50800,51.6524919111021,39.2958170434103,10,0,0,0
50900,51.6524544279287,39.2958961440311,10,0,0,0
51000,51.6524169447551,39.2959752445866,10,0,0,0
51100,51.6523794615813,39.296054345077,10,0,0,0
51200,51.6523419784072,39.296133445502,10,0,0,0
51300,51.6523044952328,39.2962125458619,10,0,0,0
51400,51.6522670120583,39.2962916461565,10,0,0,0
51500,51.6522295288835,39.2963707463858,10,0,0,0
51600,51.6521920457084,39.2964498465499,10,0,0,0
51700,51.6521545625331,39.2965289466488,10,0,0,0
51800,51.6521170793576,39.2966080466824,10,0,0,0
51900,51.6520795961818,39.2966871466508,10,0,0,0
52000,51.6520421130058,39.2967662465539,10,0,0,0
52100,51.6520046298296,39.2968453463918,10,0,0,0
52200,51.6519671466531,39.2969244461645,10,0,0,0
52300,51.6519296634763,39.2970035458719,10,0,0,0
52400,51.6518921802994,39.2970826455141,10,0,0,0
52500,51.6518546971222,39.297161745091,10,0,0,0
52600,51.6518172139447,39.2972408446027,10,0,0,0
52700,51.651779730767,39.2973199440492,10,0,0,0
52800,51.6517422475891,39.2973990434304,10,0,0,0
52900,51.6517047644109,39.2974781427463,10,0,0,0
53000,51.6516672812324,39.2975572419971,10,0,0,0
53100,51.6516297980538,39.2976363411826,10,0,0,0
53200,51.6515923148749,39.2977154403028,10,0,0,0
53300,51.6515548316958,39.2977945393578,10,0,0,0
53400,51.6515173485164,39.2978736383476,10,0,0,0
53500,51.6514798653368,39.2979527372721,10,0,0,0
53600,51.6514423821569,39.2980318361314,10,0,0,0
53700,51.6514048989768,39.2981109349254,10,0,0,0
53800,51.6513674157965,39.2981900336542,10,0,0,0
53900,51.6513299326159,39.2982691323178,10,0,0,0
54000,51.651292449435,39.2983482309161,10,0,0,0
54100,51.651254966254,39.2984273294492,10,0,0,0
54200,51.6512174830727,39.2985064279171,10,0,0,0
54300,51.6511799998911,39.2985855263197,10,0,0,0
54400,51.6511425167093,39.2986646246571,10,0,0,0
54500,51.6511050335273,39.2987437229292,10,0,0,0
54600,51.6510675503451,39.2988228211361,10,0,0,0
54700,51.6510300671625,39.2989019192778,10,0,0,0
54800,51.6509925839798,39.2989810173542,10,0,0,0
54900,51.6509551007968,39.2990601153654,10,0,0,0
55000,51.6509176176136,39.2991392133113,10,0,0,0
55100,51.6508801344301,39.299218311192,10,0,0,0
55200,51.6508426512464,39.2992974090075,10,0,0,0
55300,51.6508051680624,39.2993765067577,10,0,0,0
55400,51.6507676848782,39.2994556044427,10,0,0,0
55500,51.6507302016938,39.2995347020625,10,0,0,0
55600,51.6506927185091,39.299613799617,10,0,0,0
55700,51.6506552353242,39.2996928971063,10,0,0,0
55800,51.6506177521391,39.2997719945304,10,0,0,0
55900,51.6505802689537,39.2998510918892,10,0,0,0
56000,51.650542785768,39.2999301891827,10,0,0,0
56100,51.6505053025822,39.3000092864111,10,0,0,0
56200,51.6504683259256,39.300087314694,10,0,0,0
56300,51.6504323623279,39.3001632051549,10,0,0,0
56400,51.650397411789,39.3002369577988,10,0,0,0
56500,51.6503634743091,39.3003085726306,10,0,0,0
56600,51.6503305498881,39.3003780496551,10,0,0,0
56700,51.650298638526,39.300445388877,10,0,0,0
56800,51.6502677402228,39.3005105903008,10,0,0,0
56900,51.6502378549787,39.3005736539308,10,0,0,0
57000,51.6502089827935,39.3006345797712,10,0,0,0
57100,51.6501811236672,39.3006933678262,10,0,0,0
57200,51.6501542776001,39.3007500180996,10,0,0,0
57300,51.6501284445919,39.3008045305953,10,0,0,0
57400,51.6501036246427,39.3008569053168,10,0,0,0
57500,51.6500798177526,39.3009071422677,10,0,0,0
57600,51.6500570239216,39.3009552414514,10,0,0,0
57700,51.6500352431497,39.3010012028711,10,0,0,0
57800,51.6500144754368,39.3010450265297,10,0,0,0
57900,51.649994720783,39.3010867124304,10,0,0,0
58000,51.6499759791883,39.3011262605758,10,0,0,0
58100,51.6499582506528,39.3011636709686,10,0,0,0
58200,51.6499415351764,39.3011989436113,10,0,0,0
58300,51.6499258327591,39.3012320785063,10,0,0,0
58400,51.6499111434009,39.3012630756557,10,0,0,0
58500,51.6498974671019,39.3012919350617,10,0,0,0
58600,51.6498848038621,39.3013186567262,10,0,0,0
58700,51.6498731536814,39.3013432406509,10,0,0,0
58800,51.6498625165599,39.3013656868376,10,0,0,0
58900,51.6498528924976,39.3013859952876,10,0,0,0
59000,51.6498442814944,39.3014041660025,10,0,0,0
59100,51.6498366835504,39.3014201989833,10,0,0,0
59200,51.6498300986656,39.3014340942311,10,0,0,0
59300,51.64982452684,39.301445851747,10,0,0,0
59400,51.6498199680737,39.3014554715316,10,0,0,0
59500,51.6498164223665,39.3014629535857,10,0,0,0
59600,51.6498138897185,39.3014682979096,10,0,0,0
59700,51.6498123701296,39.3014715045039,10,0,0,0
59800,51.6498118636,39.3014725733686,10,0,0,0
59900,51.6498118636,39.3014725733686,10,0,0,0
60000,51.6498118636,39.3014725733686,10,0,0,0
60100,51.6498118636,39.3014725733686,10,0,0,0
60200,51.6498118636,39.3014725733686,10,0,0,0
60300,51.6498118636,39.3014725733686,10,0,0,0
60400,51.6498118636,39.3014725733686,10,0,0,0
60500,51.6498118636,39.3014725733686,10,0,0,0
60600,51.6498118636,39.3014725733686,10,0,0,0
60700,51.6498118636,39.3014725733686,10,0,0,0
60800,51.6498118636,39.3014725733686,10,0,0,0
60900,51.6498118636,39.3014725733686,10,0,0,0
61000,51.6498118636,39.3014725733686,10,0,0,0
61100,51.6498118636,39.3014725733686,10,0,0,0
61200,51.6498118636,39.3014725733686,10,0,0,0
61300,51.6498118636,39.3014725733686,10,0,0,0
61400,51.6498118636,39.3014725733686,10,0,0,0
61500,51.6498118636,39.3014725733686,10,0,0,0
61600,51.6498118636,39.3014725733686,10,0,0,0
61700,51.6498118636,39.3014725733686,10,0,0,0
61800,51.6498118636,39.3014725733686,10,0,0,0
61900,51.6498118636,39.3014725733686,10,0,0,0
62000,51.6498118636,39.3014725733686,10,0,0,0
62100,51.6498118636,39.3014725733686,10,0,0,0
62200,51.6498118636,39.3014725733686,10,0,0,0
62300,51.6498118636,39.3014725733686,10,0,0,0
62400,51.6498118636,39.3014725733686,10,0,0,0
62500,51.6498118636,39.3014725733686,10,0,0,0
62600,51.6498118636,39.3014725733686,10,0,0,0
62700,51.6498118636,39.3014725733686,10,0,0,0
62800,51.6498118636,39.3014725733686,10,0,0,0
62900,51.6498118636,39.3014725733686,10,0,0,0
63000,51.6498118636,39.3014725733686,10,0,0,0
63100,51.6498118636,39.3014725733686,10,0,0,0
63200,51.6498118636,39.3014725733686,10,0,0,0
63300,51.6498118636,39.3014725733686,10,0,0,0
63400,51.6498118636,39.3014725733686,10,0,0,0
63500,51.6498118636,39.3014725733686,10,0,0,0
63600,51.6498118636,39.3014725733686,10,0,0,0
63700,51.6498118636,39.3014725733686,10,0,0,0
63800,51.6498118636,39.3014725733686,10,0,0,0
63900,51.6498118636,39.3014725733686,10,0,0,0
64000,51.6498118636,39.3014725733686,10,0,0,0
64100,51.6498118636,39.3014725733686,10,0,0,0
64200,51.6498118636,39.3014725733686,10,0,0,0
64300,51.6498118636,39.3014725733686,10,0,0,0
64400,51.6498118636,39.3014725733686,10,0,0,0
64500,51.6498118636,39.3014725733686,10,0,0,0
64600,51.6498118636,39.3014725733686,10,0,0,0
64700,51.6498118636,39.3014725733686,10,0,0,0
64800,51.6498118636,39.3014725733686,10,0,0,0
64900,51.6498118636,39.3014725733686,10,0,0,0
65000,51.6498118636,39.3014725733686,10,0,0,0
65100,51.6498118636,39.3014725733686,10,0,0,0
65200,51.6498118636,39.3014725733686,10,0,0,0
65300,51.6498118636,39.3014725733686,10,0,0,0
65400,51.6498118636,39.3014725733686,10,0,0,0
65500,51.6498118636,39.3014725733686,10,0,0,0
65600,51.6498118636,39.3014725733686,10,0,0,0
65700,51.6498118636,39.3014725733686,10,0,0,0
65800,51.6498118636,39.3014725733686,10,0,0,0
65900,51.6498118636,39.3014725733686,10,0,0,0
66000,51.6498118636,39.3014725733686,10,0,0,0
66100,51.6498118636,39.3014725733686,10,0,0,0
66200,51.6498118636,39.3014725733686,10,0,0,0
66300,51.6498118636,39.3014725733686,10,0,0,0
66400,51.6498118636,39.3014725733686,10,0,0,0
66500,51.6498118636,39.3014725733686,10,0,0,0
66600,51.6498118636,39.3014725733686,10,0,0,0
66700,51.6498118636,39.3014725733686,10,0,0,0
66800,51.6498118636,39.3014725733686,10,0,0,0
66900,51.6498118636,39.3014725733686,10,0,0,0
67000,51.6498118636,39.3014725733686,10,0,0,0
67100,51.6498118636,39.3014725733686,10,0,0,0
67200,51.6498118636,39.3014725733686,10,0,0,0
67300,51.6498118636,39.3014725733686,10,0,0,0
67400,51.6498118636,39.3014725733686,10,0,0,0
67500,51.6498118636,39.3014725733686,10,0,0,0
67600,51.6498118636,39.3014725733686,10,0,0,0
67700,51.6498118636,39.3014725733686,10,0,0,0
67800,51.6498118636,39.3014725733686,10,0,0,0
67900,51.6498118636,39.3014725733686,10,0,0,0
68000,51.6498118636,39.3014725733686,10,0,0,0
68100,51.6498118636,39.3014725733686,10,0,0,0
68200,51.6498118636,39.3014725733686,10,0,0,0
68300,51.6498118636,39.3014725733686,10,0,0,0
68400,51.6498118636,39.3014725733686,10,0,0,0
68500,51.6498118636,39.3014725733686,10,0,0,0
68600,51.6498118636,39.3014725733686,10,0,0,0
68700,51.6498118636,39.3014725733686,10,0,0,0
68800,51.6498118636,39.3014725733686,10,0,0,0
68900,51.6498118636,39.3014725733686,10,0,0,0
69000,51.6498118636,39.3014725733686,10,0,0,0
69100,51.6498118636,39.3014725733686,10,0,0,0
69200,51.6498118636,39.3014725733686,10,0,0,0
69300,51.6498118636,39.3014725733686,10,0,0,0
69400,51.6498118636,39.3014725733686,10,0,0,0
69500,51.6498118636,39.3014725733686,10,0,0,0
69600,51.6498118636,39.3014725733686,10,0,0,0
69700,51.6498118636,39.3014725733686,10,0,0,0
69800,51.6498118636,39.3014725733686,10,0,0,0
69900,51.6498118636,39.3014725733686,10,0,0,0
70000,51.6498118636,39.3014725733686,10,0,0,0
70100,51.6498118636,39.3014725733686,10,0,0,0
70200,51.6498118636,39.3014725733686,10,0,0,0
70300,51.6498118636,39.3014725733686,10,0,0,0
70400,51.6498118636,39.3014725733686,10,0,0,0
70500,51.6498118636,39.3014725733686,10,0,0,0
70600,51.6498118636,39.3014725733686,10,0,0,0
70700,51.6498118636,39.3014725733686,10,0,0,0
70800,51.6498118636,39.3014725733686,10,0,0,0
70900,51.6498118636,39.3014725733686,10,0,0,0
71000,51.6498118636,39.3014725733686,10,0,0,0
71100,51.6498118636,39.3014725733686,10,0,0,0
71200,51.6498118636,39.3014725733686,10,0,0,0
71300,51.6498118636,39.3014725733686,10,0,0,0
71400,51.6498118636,39.3014725733686,10,0,0,0
71500,51.6498118636,39.3014725733686,10,0,0,0
71600,51.6498118636,39.3014725733686,10,0,0,0
71700,51.6498118636,39.3014725733686,10,0,0,0
71800,51.6498118636,39.3014725733686,10,0,0,0
71900,51.6498118636,39.3014725733686,10,0,0,0
72000,51.6498118636,39.3014725733686,10,0,0,0
72100,51.6498118636,39.3014725733686,10,0,0,0
72200,51.6498118636,39.3014725733686,10,0,0,0
72300,51.6498118636,39.3014725733686,10,0,0,0
72400,51.6498118636,39.3014725733686,10,0,0,0
72500,51.6498118636,39.3014725733686,10,0,0,0
72600,51.6498118636,39.3014725733686,10,0,0,0
72700,51.6498118636,39.3014725733686,10,0,0,0
72800,51.6498118636,39.3014725733686,10,0,0,0
72900,51.6498118636,39.3014725733686,10,0,0,0
73000,51.6498118636,39.3014725733686,10,0,0,0
73100,51.6498118636,39.3014725733686,10,0,0,0
73200,51.6498118636,39.3014725733686,10,0,0,0
73300,51.6498118636,39.3014725733686,10,0,0,0
73400,51.6498118636,39.3014725733686,10,0,0,0
73500,51.6498118636,39.3014725733686,10,0,0,0
73600,51.6498118636,39.3014725733686,10,0,0,0
73700,51.6498118636,39.3014725733686,10,0,0,0
73800,51.6498118636,39.3014725733686,10,0,0,0
73900,51.6498118636,39.3014725733686,10,0,0,0
74000,51.6498118636,39.3014725733686,10,0,0,0
74100,51.6498118636,39.3014725733686,10,0,0,0
74200,51.6498118636,39.3014725733686,10,0,0,0
74300,51.6498118636,39.3014725733686,10,0,0,0
74400,51.6498118636,39.3014725733686,10,0,0,0
74500,51.6498118636,39.3014725733686,10,0,0,0
74600,51.6498118636,39.3014725733686,10,0,0,0
74700,51.6498118636,39.3014725733686,10,0,0,0
74800,51.6498118636,39.3014725733686,10,0,0,0
74900,51.6498113570704,39.3014736422333,10,0,0,0
75000,51.6498098374816,39.3014768488273,10,0,0,0
75100,51.6498073048336,39.3014821931505,10,0,0,0
75200,51.6498037591264,39.3014896752025,10,0,0,0
75300,51.64979920036,39.3014992949827,10,0,0,0
75400,51.6497936285344,39.3015110524906,10,0,0,0
75500,51.6497870436495,39.3015249477253,10,0,0,0
75600,51.6497794457055,39.3015409806859,10,0,0,0
75700,51.6497708347022,39.3015591513714,10,0,0,0
75800,51.6497612106397,39.3015794597805,10,0,0,0
75900,51.649750573518,39.3016019059118,10,0,0,0
76000,51.6497389233371,39.301626489764,10,0,0,0
76100,51.6497262600969,39.3016532113352,10,0,0,0
76200,51.6497125837974,39.3016820706238,10,0,0,0
76300,51.6496978944388,39.3017130676278,10,0,0,0
76400,51.6496821920208,39.3017462023452,10,0,0,0
76500,51.6496654765436,39.3017814747736,10,0,0,0
76600,51.6496477480071,39.3018188849109,10,0,0,0
76700,51.6496290064113,39.3018584327543,10,0,0,0
76800,51.6496092517562,39.3019001183014,10,0,0,0
76900,51.6495889905715,39.3019428726899,10,0,0,0
77000,51.6495687293866,39.3019856270593,10,0,0,0
77100,51.6495484682017,39.3020283814096,10,0,0,0
77200,51.6495282070168,39.3020711357409,10,0,0,0
77300,51.6495079458317,39.3021138900531,10,0,0,0
77400,51.6494876846466,39.3021566443462,10,0,0,0
77500,51.6494674234614,39.3021993986203,10,0,0,0
77600,51.6494471622762,39.3022421528754,10,0,0,0
77700,51.6494269010908,39.3022849071113,10,0,0,0
77800,51.6494066399054,39.3023276613283,10,0,0,0
77900,51.64938637872,39.3023704155261,10,0,0,0
78000,51.6493661175344,39.3024131697049,10,0,0,0
78100,51.6493458563488,39.3024559238646,10,0,0,0
78200,51.6493255951631,39.3024986780053,10,0,0,0
78300,51.6493053339774,39.3025414321269,10,0,0,0
78400,51.6492850727916,39.3025841862295,10,0,0,0
78500,51.6492648116057,39.302626940313,10,0,0,0
78600,51.6492445504197,39.3026696943774,10,0,0,0
78700,51.6492242892337,39.3027124484228,10,0,0,0
78800,51.6492040280476,39.3027552024491,10,0,0,0
78900,51.6491837668614,39.3027979564564,10,0,0,0
79000,51.6491635056752,39.3028407104446,10,0,0,0
79100,51.6491432444889,39.3028834644137,10,0,0,0
79200,51.6491229833025,39.3029262183638,10,0,0,0
79300,51.649102722116,39.3029689722948,10,0,0,0
79400,51.6490824609295,39.3030117262068,10,0,0,0
79500,51.6490621997429,39.3030544800997,10,0,0,0
79600,51.6490419385563,39.3030972339735,10,0,0,0
79700,51.6490216773695,39.3031399878283,10,0,0,0
79800,51.6490014161827,39.303182741664,10,0,0,0
79900,51.6489811549959,39.3032254954807,10,0,0,0
80000,51.6489608938089,39.3032682492783,10,0,0,0
80100,51.6489406326219,39.3033110030569,10,0,0,0
80200,51.6489203714348,39.3033537568164,10,0,0,0
80300,51.6489001102476,39.3033965105568,10,0,0,0
80400,51.6488798490604,39.3034392642782,10,0,0,0
80500,51.6488595878731,39.3034820179805,10,0,0,0
80600,51.6488393266858,39.3035247716637,10,0,0,0
80700,51.6488190654983,39.3035675253279,10,0,0,0
80800,51.6487988043108,39.303610278973,10,0,0,0
80900,51.6487785431232,39.3036530325991,10,0,0,0
81000,51.6487582819356,39.3036957862061,10,0,0,0
81100,51.6487380207479,39.3037385397941,10,0,0,0
81200,51.6487177595601,39.303781293363,10,0,0,0
81300,51.6486974983722,39.3038240469128,10,0,0,0
81400,51.6486772371843,39.3038668004436,10,0,0,0
81500,51.6486569759963,39.3039095539553,10,0,0,0
81600,51.6486367148082,39.303952307448,10,0,0,0
81700,51.6486164536201,39.3039950609216,10,0,0,0
81800,51.6485961924319,39.3040378143761,10,0,0,0
81900,51.6485759312436,39.3040805678116,10,0,0,0
82000,51.6485556700552,39.304123321228,10,0,0,0
82100,51.6485354088668,39.3041660746254,10,0,0,0
82200,51.6485151476783,39.3042088280037,10,0,0,0
82300,51.6484948864898,39.304251581363,10,0,0,0
82400,51.6484746253011,39.3042943347032,10,0,0,0
82500,51.6484543641124,39.3043370880243,10,0,0,0
82600,51.6484341029237,39.3043798413264,10,0,0,0
82700,51.6484138417348,39.3044225946094,10,0,0,0
82800,51.6483935805459,39.3044653478733,10,0,0,0
82900,51.6483733193569,39.3045081011182,10,0,0,0
83000,51.6483530581679,39.3045508543441,10,0,0,0
83100,51.6483327969787,39.3045936075508,10,0,0,0
83200,51.6483125357896,39.3046363607386,10,0,0,0
83300,51.6482922746003,39.3046791139072,10,0,0,0
83400,51.6482720134109,39.3047218670568,10,0,0,0
83500,51.6482517522215,39.3047646201874,10,0,0,0
83600,51.6482314910321,39.3048073732989,10,0,0,0
83700,51.6482112298425,39.3048501263913,10,0,0,0
83800,51.6481909686529,39.3048928794647,10,0,0,0
83900,51.6481707074632,39.304935632519,10,0,0,0
84000,51.6481504462735,39.3049783855543,10,0,0,0
84100,51.6481301850836,39.3050211385704,10,0,0,0
84200,51.6481099238938,39.3050638915676,10,0,0,0
84300,51.6480896627038,39.3051066445457,10,0,0,0
84400,51.6480694015137,39.3051493975047,10,0,0,0
84500,51.6480491403236,39.3051921504446,10,0,0,0
84600,51.6480288791334,39.3052349033656,10,0,0,0
84700,51.6480086179432,39.3052776562674,10,0,0,0
84800,51.6479883567529,39.3053204091502,10,0,0,0
84900,51.6479680955625,39.3053631620139,10,0,0,0
85000,51.647947834372,39.3054059148586,10,0,0,0
85100,51.6479275731815,39.3054486676842,10,0,0,0
85200,51.6479073119909,39.3054914204908,10,0,0,0
85300,51.6478870508002,39.3055341732783,10,0,0,0
85400,51.6478667896095,39.3055769260467,10,0,0,0
85500,51.6478465284187,39.3056196787961,10,0,0,0
85600,51.6478262672278,39.3056624315264,10,0,0,0
85700,51.6478060060369,39.3057051842377,10,0,0,0
85800,51.6477857448458,39.3057479369299,10,0,0,0
85900,51.6477654836547,39.305790689603,10,0,0,0
86000,51.6477452224636,39.3058334422571,10,0,0,0
86100,51.6477249612723,39.3058761948922,10,0,0,0
86200,51.647704700081,39.3059189475081,10,0,0,0
86300,51.6476844388897,39.3059617001051,10,0,0,0
86400,51.6476641776982,39.3060044526829,10,0,0,0
86500,51.6476439165067,39.3060472052417,10,0,0,0
86600,51.6476236553151,39.3060899577815,10,0,0,0
86700,51.6476033941235,39.3061327103022,10,0,0,0
86800,51.6475831329317,39.3061754628038,10,0,0,0
86900,51.64756287174,39.3062182152863,10,0,0,0
87000,51.6475426105481,39.3062609677499,10,0,0,0
87100,51.6475223493561,39.3063037201943,10,0,0,0
87200,51.6475020881641,39.3063464726197,10,0,0,0
87300,51.6474818269721,39.3063892250261,10,0,0,0
87400,51.6474615657799,39.3064319774133,10,0,0,0
87500,51.6474413045877,39.3064747297816,10,0,0,0
87600,51.6474210433954,39.3065174821307,10,0,0,0
87700,51.6474007822031,39.3065602344609,10,0,0,0
87800,51.6473805210106,39.3066029867719,10,0,0,0
87900,51.6473602598181,39.3066457390639,10,0,0,0
88000,51.6473399986255,39.3066884913368,10,0,0,0
88100,51.6473197374329,39.3067312435907,10,0,0,0
88200,51.6472994762402,39.3067739958255,10,0,0,0
88300,51.6472792150474,39.3068167480413,10,0,0,0
88400,51.6472589538546,39.306859500238,10,0,0,0
88500,51.6472386926617,39.3069022524157,10,0,0,0
88600,51.6472184314687,39.3069450045743,10,0,0,0
88700,51.6471981702756,39.3069877567138,10,0,0,0
88800,51.6471779090825,39.3070305088343,10,0,0,0
88900,51.6471576478893,39.3070732609357,10,0,0,0
89000,51.647137386696,39.3071160130181,10,0,0,0
89100,51.6471171255027,39.3071587650814,10,0,0,0
89200,51.6470968643092,39.3072015171256,10,0,0,0
89300,51.6470766031158,39.3072442691508,10,0,0,0
89400,51.6470563419222,39.307287021157,10,0,0,0
89500,51.6470360807286,39.307329773144,10,0,0,0
89600,51.6470158195349,39.3073725251121,10,0,0,0
89700,51.6469955583411,39.307415277061,10,0,0,0
89800,51.6469752971473,39.3074580289909,10,0,0,0
89900,51.6469550359534,39.3075007809018,10,0,0,0
90000,51.6469347747594,39.3075435327936,10,0,0,0
90100,51.6469145135654,39.3075862846663,10,0,0,0
90200,51.6468942523712,39.30762903652,10,0,0,0
90300,51.6468739911771,39.3076717883546,10,0,0,0
90400,51.6468537299828,39.3077145401702,10,0,0,0
90500,51.6468334687885,39.3077572919667,10,0,0,0
90600,51.6468132075941,39.3078000437442,10,0,0,0
90700,51.6467929463996,39.3078427955026,10,0,0,0
90800,51.6467726852051,39.3078855472419,10,0,0,0
90900,51.6467524240105,39.3079282989622,10,0,0,0
91000,51.6467321628158,39.3079710506634,10,0,0,0
91100,51.646711901621,39.3080138023456,10,0,0,0
91200,51.6466916404262,39.3080565540087,10,0,0,0
91300,51.6466713792313,39.3080993056527,10,0,0,0
91400,51.6466511180364,39.3081420572777,10,0,0,0
91500,51.6466308568413,39.3081848088837,10,0,0,0
91600,51.6466105956462,39.3082275604706,10,0,0,0
91700,51.6465903344511,39.3082703120384,10,0,0,0
91800,51.6465700732558,39.3083130635872,10,0,0,0
91900,51.6465498120605,39.3083558151169,10,0,0,0
92000,51.6465295508651,39.3083985666275,10,0,0,0
92100,51.6465092896697,39.3084413181191,10,0,0,0
92200,51.6464890284742,39.3084840695917,10,0,0,0
92300,51.6464687672786,39.3085268210452,10,0,0,0
92400,51.6464485060829,39.3085695724796,10,0,0,0
92500,51.6464282448872,39.308612323895,10,0,0,0
92600,51.6464079836914,39.3086550752913,10,0,0,0
92700,51.6463877224955,39.3086978266686,10,0,0,0
92800,51.6463674612995,39.3087405780268,10,0,0,0
92900,51.6463472001036,39.3087833293659,10,0,0,0
93000,51.6463269389075,39.308826080686,10,0,0,0
93100,51.6463066777113,39.308868831987,10,0,0,0
93200,51.6462864165151,39.308911583269,10,0,0,0
93300,51.6462661553188,39.308954334532,10,0,0,0
93400,51.6462458941224,39.3089970857758,10,0,0,0
93500,51.646225632926,39.3090398370006,10,0,0,0
93600,51.6462053717295,39.3090825882064,10,0,0,0
93700,51.6461851105329,39.3091253393931,10,0,0,0
93800,51.6461648493363,39.3091680905607,10,0,0,0
93900,51.6461445881395,39.3092108417093,10,0,0,0
94000,51.6461243269428,39.3092535928389,10,0,0,0
94100,51.6461040657459,39.3092963439493,10,0,0,0
94200,51.646083804549,39.3093390950407,10,0,0,0
94300,51.646063543352,39.3093818461131,10,0,0,0
94400,51.6460432821549,39.3094245971664,10,0,0,0
94500,51.6460230209578,39.3094673482007,10,0,0,0
94600,51.6460027597605,39.3095100992159,10,0,0,0
94700,51.6459824985633,39.309552850212,10,0,0,0
94800,51.6459622373659,39.3095956011891,10,0,0,0
94900,51.6459419761685,39.3096383521471,10,0,0,0
95000,51.645921714971,39.3096811030861,10,0,0,0
95100,51.6459014537734,39.309723854006,10,0,0,0
95200,51.6458811925758,39.3097666049069,10,0,0,0
95300,51.6458609313781,39.3098093557887,10,0,0,0
95400,51.6458406701803,39.3098521066514,10,0,0,0
95500,51.6458204089825,39.3098948574951,10,0,0,0
95600,51.6458001477846,39.3099376083197,10,0,0,0
95700,51.6457798865866,39.3099803591253,10,0,0,0
95800,51.6457596253886,39.3100231099119,10,0,0,0
95900,51.6457393641904,39.3100658606793,10,0,0,0
96000,51.6457191029922,39.3101086114277,10,0,0,0
96100,51.645698841794,39.3101513621571,10,0,0,0
96200,51.6456785805956,39.3101941128674,10,0,0,0
96300,51.6456583193972,39.3102368635587,10,0,0,0
96400,51.6456380581988,39.3102796142308,10,0,0,0
96500,51.6456177970002,39.310322364884,10,0,0,0
96600,51.6455975358016,39.3103651155181,10,0,0,0
96700,51.6455772746029,39.3104078661331,10,0,0,0
96800,51.6455570134041,39.310450616729,10,0,0,0
96900,51.6455367522053,39.310493367306,10,0,0,0
97000,51.6455164910064,39.3105361178638,10,0,0,0
97100,51.6454962298074,39.3105788684026,10,0,0,0
97200,51.6454759686084,39.3106216189224,10,0,0,0
97300,51.6454557074093,39.3106643694231,10,0,0,0
97400,51.6454354462102,39.3107071199047,10,0,0,0
97500,51.6454151850109,39.3107498703673,10,0,0,0
97600,51.6453949238116,39.3107926208108,10,0,0,0
97700,51.6453746626122,39.3108353712353,10,0,0,0
97800,51.6453544014127,39.3108781216407,10,0,0,0
97900,51.6453341402132,39.3109208720271,10,0,0,0
98000,51.6453138790136,39.3109636223944,10,0,0,0
98100,51.6452936178139,39.3110063727426,10,0,0,0
98200,51.6452733566142,39.3110491230718,10,0,0,0
98300,51.6452530954144,39.3110918733819,10,0,0,0
98400,51.6452328342145,39.311134623673,10,0,0,0
98500,51.6452125730145,39.3111773739451,10,0,0,0
98600,51.6451923118145,39.311220124198,10,0,0,0
98700,51.6451720506144,39.311262874432,10,0,0,0
98800,51.6451517894143,39.3113056246468,10,0,0,0
98900,51.645131528214,39.3113483748426,10,0,0,0
99000,51.6451112670138,39.3113911250194,10,0,0,0
99100,51.6450910058134,39.3114338751771,10,0,0,0
99200,51.6450707446129,39.3114766253157,10,0,0,0
99300,51.6450504834124,39.3115193754353,10,0,0,0
99400,51.6450302222118,39.3115621255359,10,0,0,0
99500,51.6450099610112,39.3116048756173,10,0,0,0
99600,51.6449896998104,39.3116476256798,10,0,0,0
99700,51.6449694386097,39.3116903757231,10,0,0,0
99800,51.6449491774088,39.3117331257474,10,0,0,0
99900,51.6449289162078,39.3117758757527,10,0,0,0
100000,51.6449086550069,39.3118186257389,10,0,0,0
100100,51.6448883938058,39.3118613757061,10,0,0,0
100200,51.6448681326046,39.3119041256541,10,0,0,0
100300,51.6448478714034,39.3119468755832,10,0,0,0
100400,51.6448276102021,39.3119896254932,10,0,0,0
100500,51.6448073490007,39.3120323753841,10,0,0,0
100600,51.6447870877993,39.312075125256,10,0,0,0
100700,51.6447668265979,39.3121178751088,10,0,0,0
100800,51.6447465653962,39.3121606249426,10,0,0,0
100900,51.6447263041946,39.3122033747573,10,0,0,0
101000,51.6447060429929,39.3122461245529,10,0,0,0
101100,51.6446857817911,39.3122888743295,10,0,0,0
101200,51.6446655205893,39.3123316240871,10,0,0,0
101300,51.6446452593874,39.3123743738256,10,0,0,0
101400,51.6446249981854,39.312417123545,10,0,0,0
101500,51.6446047369833,39.3124598732454,10,0,0,0
101600,51.6445844757812,39.3125026229268,10,0,0,0
101700,51.644564214579,39.312545372589,10,0,0,0
101800,51.6445439533767,39.3125881222322,10,0,0,0
101900,51.6445236921744,39.3126308718564,10,0,0,0
102000,51.644503430972,39.3126736214615,10,0,0,0
102100,51.6444831697695,39.3127163710476,10,0,0,0
102200,51.6444629085669,39.3127591206146,10,0,0,0
102300,51.6444426473643,39.3128018701626,10,0,0,0
102400,51.6444223861616,39.3128446196914,10,0,0,0
102500,51.6444021249588,39.3128873692013,10,0,0,0
102600,51.644381863756,39.3129301186921,10,0,0,0
102700,51.6443616025531,39.3129728681638,10,0,0,0
102800,51.6443413413501,39.3130156176165,10,0,0,0
102900,51.6443210801471,39.3130583670501,10,0,0,0
103000,51.644300818944,39.3131011164647,10,0,0,0
103100,51.6442805577408,39.3131438658602,10,0,0,0
103200,51.6442602965375,39.3131866152367,10,0,0,0
103300,51.6442400353342,39.3132293645941,10,0,0,0
103400,51.6442197741308,39.3132721139324,10,0,0,0
103500,51.6441995129273,39.3133148632517,10,0,0,0
103600,51.6441792517238,39.313357612552,10,0,0,0
103700,51.6441589905202,39.3134003618332,10,0,0,0
103800,51.6441387293165,39.3134431110953,10,0,0,0
103900,51.6441184681128,39.3134858603384,10,0,0,0
104000,51.6440982069089,39.3135286095624,10,0,0,0
104100,51.6440779457051,39.3135713587674,10,0,0,0
104200,51.6440576845011,39.3136141079533,10,0,0,0
104300,51.6440374232971,39.3136568571202,10,0,0,0
104400,51.644017162093,39.313699606268,10,0,0,0
104500,51.6439969008888,39.3137423553968,10,0,0,0
104600,51.6439766396846,39.3137851045065,10,0,0,0
104700,51.6439563784802,39.3138278535972,10,0,0,0
104800,51.6439361172759,39.3138706026688,10,0,0,0
104900,51.6439158560714,39.3139133517213,10,0,0,0
105000,51.6438955948669,39.3139561007548,10,0,0,0
105100,51.6438753336623,39.3139988497692,10,0,0,0
105200,51.6438550724576,39.3140415987646,10,0,0,0
105300,51.6438348112529,39.314084347741,10,0,0,0
105400,51.6438145500481,39.3141270966982,10,0,0,0
105500,51.6437942888432,39.3141698456365,10,0,0,0
105600,51.6437740276383,39.3142125945556,10,0,0,0
105700,51.6437537664333,39.3142553434558,10,0,0,0
105800,51.6437335052282,39.3142980923368,10,0,0,0
105900,51.643713244023,39.3143408411988,10,0,0,0
106000,51.6436929828178,39.3143835900418,10,0,0,0
106100,51.6436727216125,39.3144263388657,10,0,0,0
106200,51.6436524604071,39.3144690876706,10,0,0,0
106300,51.6436321992017,39.3145118364564,10,0,0,0
106400,51.6436119379962,39.3145545852231,10,0,0,0
106500,51.6435916767907,39.3145973339708,10,0,0,0
106600,51.643571415585,39.3146400826994,10,0,0,0
106700,51.6435511543793,39.314682831409,10,0,0,0
106800,51.6435308931735,39.3147255800996,10,0,0,0
106900,51.6435106319676,39.314768328771,10,0,0,0
107000,51.6434903707617,39.3148110774235,10,0,0,0
107100,51.6434701095557,39.3148538260568,10,0,0,0
107200,51.6434498483496,39.3148965746712,10,0,0,0
107300,51.6434295871435,39.3149393232664,10,0,0,0
107400,51.6434093259373,39.3149820718426,10,0,0,0
107500,51.643389064731,39.3150248203998,10,0,0,0
107600,51.6433688035247,39.3150675689379,10,0,0,0
107700,51.6433485423182,39.3151103174569,10,0,0,0
107800,51.6433282811118,39.3151530659569,10,0,0,0
107900,51.6433080199052,39.3151958144379,10,0,0,0
108000,51.6432877586985,39.3152385628998,10,0,0,0
108100,51.6432674974919,39.3152813113426,10,0,0,0
108200,51.6432472362851,39.3153240597664,10,0,0,0
108300,51.6432269750782,39.3153668081712,10,0,0,0
108400,51.6432067138713,39.3154095565568,10,0,0,0
108500,51.6431864526643,39.3154523049235,10,0,0,0
108600,51.6431661914573,39.3154950532711,10,0,0,0
108700,51.6431459302502,39.3155378015996,10,0,0,0
108800,51.643125669043,39.315580549909,10,0,0,0
108900,51.6431054078357,39.3156232981995,10,0,0,0
109000,51.6430851466284,39.3156660464708,10,0,0,0
109100,51.643064885421,39.3157087947231,10,0,0,0
109200,51.6430446242135,39.3157515429564,10,0,0,0
109300,51.643024363006,39.3157942911706,10,0,0,0
109400,51.6430041017984,39.3158370393658,10,0,0,0
109500,51.6429838405907,39.3158797875419,10,0,0,0
109600,51.6429635793829,39.3159225356989,10,0,0,0
109700,51.6429433181751,39.3159652838369,10,0,0,0
109800,51.6429230569672,39.3160080319559,10,0,0,0
109900,51.6429027957592,39.3160507800558,10,0,0,0
110000,51.6428825345512,39.3160935281366,10,0,0,0
110100,51.6428622733431,39.3161362761984,10,0,0,0
110200,51.6428420121349,39.3161790242411,10,0,0,0
110300,51.6428217509267,39.3162217722648,10,0,0,0
110400,51.6428014897183,39.3162645202694,10,0,0,0
110500,51.6427812285099,39.316307268255,10,0,0,0
110600,51.6427609673015,39.3163500162215,10,0,0,0
110700,51.642740706093,39.316392764169,10,0,0,0
110800,51.6427204448844,39.3164355120974,10,0,0,0
110900,51.6427001836757,39.3164782600068,10,0,0,0
111000,51.6426799224669,39.3165210078971,10,0,0,0
111100,51.6426596612581,39.3165637557684,10,0,0,0
111200,51.6426394000493,39.3166065036206,10,0,0,0
111300,51.6426191388403,39.3166492514537,10,0,0,0
111400,51.6425988776313,39.3166919992678,10,0,0,0
111500,51.6425786164222,39.3167347470629,10,0,0,0
111600,51.642558355213,39.3167774948389,10,0,0,0
111700,51.6425380940038,39.3168202425958,10,0,0,0
111800,51.6425178327945,39.3168629903337,10,0,0,0
111900,51.6424975715851,39.3169057380526,10,0,0,0
112000,51.6424773103757,39.3169484857524,10,0,0,0
112100,51.6424570491662,39.3169912334331,10,0,0,0
112200,51.6424367879566,39.3170339810948,10,0,0,0
112300,51.6424165267469,39.3170767287374,10,0,0,0
112400,51.6423962655372,39.317119476361,10,0,0,0
112500,51.6423760043274,39.3171622239656,10,0,0,0
112600,51.6423557431175,39.317204971551,10,0,0,0
112700,51.6423354819076,39.3172477191175,10,0,0,0
112800,51.6423152206976,39.3172904666649,10,0,0,0
112900,51.6422949594875,39.3173332141932,10,0,0,0
113000,51.6422746982774,39.3173759617025,10,0,0,0
113100,51.6422544370672,39.3174187091927,10,0,0,0
113200,51.6422341758569,39.3174614566638,10,0,0,0
113300,51.6422139146465,39.317504204116,10,0,0,0
113400,51.6421936534361,39.317546951549,10,0,0,0
113500,51.6421733922256,39.317589698963,10,0,0,0
113600,51.642153131015,39.317632446358,10,0,0,0
113700,51.6421328698044,39.3176751937339,10,0,0,0
113800,51.6421126085937,39.3177179410908,10,0,0,0
113900,51.6420923473829,39.3177606884286,10,0,0,0
114000,51.6420720861721,39.3178034357473,10,0,0,0
114100,51.6420518249611,39.317846183047,10,0,0,0
114200,51.6420315637501,39.3178889303277,10,0,0,0
114300,51.6420113025391,39.3179316775893,10,0,0,0
114400,51.6419910413279,39.3179744248318,10,0,0,0
114500,51.6419707801168,39.3180171720553,10,0,0,0
114600,51.6419505189055,39.3180599192598,10,0,0,0
114700,51.6419302576941,39.3181026664452,10,0,0,0
114800,51.6419099964827,39.3181454136115,10,0,0,0
114900,51.6418897352712,39.3181881607588,10,0,0,0
115000,51.6418694740597,39.3182309078871,10,0,0,0
115100,51.6418492128481,39.3182736549962,10,0,0,0
115200,51.6418289516364,39.3183164020864,10,0,0,0
115300,51.6418086904246,39.3183591491575,10,0,0,0
115400,51.6417884292128,39.3184018962095,10,0,0,0
115500,51.6417681680009,39.3184446432425,10,0,0,0
115600,51.6417479067889,39.3184873902564,10,0,0,0
115700,51.6417276455768,39.3185301372513,10,0,0,0
115800,51.6417073843648,39.3185728842271,10,0,0,0
115900,51.6416871231526,39.3186156311839,10,0,0,0
116000,51.6416668619403,39.3186583781216,10,0,0,0
116100,51.641646600728,39.3187011250403,10,0,0,0
116200,51.6416263395156,39.3187438719399,10,0,0,0
116300,51.6416060783031,39.3187866188205,10,0,0,0
116400,51.6415858170906,39.318829365682,10,0,0,0
116500,51.641565555878,39.3188721125245,10,0,0,0
116600,51.6415452946653,39.3189148593479,10,0,0,0
116700,51.6415250334525,39.3189576061523,10,0,0,0
116800,51.6415047722397,39.3190003529376,10,0,0,0
116900,51.6414845110268,39.3190430997039,10,0,0,0
117000,51.6414642498139,39.3190858464511,10,0,0,0
117100,51.6414439886009,39.3191285931793,10,0,0,0
117200,51.6414237273877,39.3191713398884,10,0,0,0
117300,51.6414034661746,39.3192140865784,10,0,0,0
117400,51.6413832049614,39.3192568332494,10,0,0,0
117500,51.641362943748,39.3192995799014,10,0,0,0
117600,51.6413426825346,39.3193423265343,10,0,0,0
117700,51.6413224213212,39.3193850731482,10,0,0,0
117800,51.6413021601077,39.319427819743,10,0,0,0
117900,51.6412818988941,39.3194705663187,10,0,0,0
118000,51.6412616376804,39.3195133128755,10,0,0,0
118100,51.6412413764667,39.3195560594131,10,0,0,0
118200,51.6412211152529,39.3195988059317,10,0,0,0
118300,51.641200854039,39.3196415524313,10,0,0,0
118400,51.6411805928251,39.3196842989118,10,0,0,0
118500,51.641160331611,39.3197270453732,10,0,0,0
118600,51.641140070397,39.3197697918156,10,0,0,0
118700,51.6411198091828,39.319812538239,10,0,0,0
118800,51.6410995479686,39.3198552846433,10,0,0,0
118900,51.6410792867543,39.3198980310285,10,0,0,0
119000,51.6410590255399,39.3199407773947,10,0,0,0
119100,51.6410387643255,39.3199835237419,10,0,0,0
119200,51.641018503111,39.32002627007,10,0,0,0
119300,51.6409982418964,39.320069016379,10,0,0,0
119400,51.6409779806818,39.320111762669,10,0,0,0
119500,51.640957719467,39.32015450894,10,0,0,0
119600,51.6409374582522,39.3201972551919,10,0,0,0
119700,51.6409171970374,39.3202400014247,10,0,0,0
119800,51.6408969358225,39.3202827476385,10,0,0,0
119900,51.6408766746075,39.3203254938333,10,0,0,0
120000,51.6408564133924,39.320368240009,10,0,0,0
120100,51.6408361521773,39.3204109861656,10,0,0,0
120200,51.6408158909621,39.3204537323032,10,0,0,0
120300,51.6407956297468,39.3204964784218,10,0,0,0
120400,51.6407753685314,39.3205392245213,10,0,0,0
120500,51.640755107316,39.3205819706017,10,0,0,0
120600,51.6407348461005,39.3206247166631,10,0,0,0
120700,51.640714584885,39.3206674627054,10,0,0,0
120800,51.6406943236694,39.3207102087287,10,0,0,0
120900,51.6406740624536,39.320752954733,10,0,0,0
121000,51.6406538012379,39.3207957007182,10,0,0,0
121100,51.640633540022,39.3208384466843,10,0,0,0
121200,51.6406132788061,39.3208811926314,10,0,0,0
121300,51.6405930175901,39.3209239385595,10,0,0,0
121400,51.6405727563741,39.3209666844685,10,0,0,0
121500,51.640552495158,39.3210094303584,10,0,0,0
121600,51.6405322339418,39.3210521762293,10,0,0,0
121700,51.6405119727255,39.3210949220811,10,0,0,0
121800,51.6404917115092,39.3211376679139,10,0,0,0
121900,51.6404714502928,39.3211804137277,10,0,0,0
122000,51.6404511890763,39.3212231595224,10,0,0,0
122100,51.6404309278598,39.321265905298,10,0,0,0
122200,51.6404106666431,39.3213086510546,10,0,0,0
122300,51.6403904054264,39.3213513967922,10,0,0,0
122400,51.6403701442097,39.3213941425107,10,0,0,0
122500,51.6403498829929,39.3214368882101,10,0,0,0
122600,51.640329621776,39.3214796338905,10,0,0,0
122700,51.640309360559,39.3215223795519,10,0,0,0
122800,51.640289099342,39.3215651251941,10,0,0,0
122900,51.6402688381249,39.3216078708174,10,0,0,0
123000,51.6402485769077,39.3216506164216,10,0,0,0
123100,51.6402283156904,39.3216933620067,10,0,0,0
123200,51.6402080544731,39.3217361075728,10,0,0,0
123300,51.6401877932558,39.3217788531199,10,0,0,0
123400,51.6401675320383,39.3218215986479,10,0,0,0
123500,51.6401472708207,39.3218643441568,10,0,0,0
