Timestamp (ms),Latitude (deg),Longitude (deg),Altitude (m),Yaw (deg),Pitch (deg),Roll (deg)
0,51.66383056,39.27188611,10,0,0,0
100,51.6638376369955,39.2718950193363,10,0,0,0
200,51.6638447028951,39.2719039514174,10,0,0,0
300,51.6638517576704,39.2719129062077,10,0,0,0
400,51.6638588012933,39.2719218836713,10,0,0,0
500,51.6638658337355,39.2719308837722,10,0,0,0
600,51.663872854969,39.2719399064746,10,0,0,0
700,51.6638798649657,39.2719489517423,10,0,0,0
800,51.6638868636974,39.2719580195392,10,0,0,0
900,51.6638938511363,39.2719671098289,10,0,0,0
1000,51.6639008272543,39.2719762225752,10,0,0,0
1100,51.6639077920235,39.2719853577415,10,0,0,0
1200,51.6639147454161,39.2719945152914,10,0,0,0
1300,51.6639216874042,39.2720036951882,10,0,0,0
1400,51.6639286179602,39.2720128973952,10,0,0,0
1500,51.6639355370561,39.2720221218755,10,0,0,0
1600,51.6639424446645,39.2720313685924,10,0,0,0
1700,51.6639493407576,39.2720406375087,10,0,0,0
1800,51.6639562253078,39.2720499285875,10,0,0,0
1900,51.6639630982877,39.2720592417916,10,0,0,0
2000,51.6639699596696,39.2720685770837,10,0,0,0
2100,51.6639768094262,39.2720779344265,10,0,0,0
2200,51.6639836475301,39.2720873137825,10,0,0,0
2300,51.6639904739538,39.2720967151143,10,0,0,0
2400,51.6639972886701,39.2721061383842,10,0,0,0
2500,51.6640040916518,39.2721155835546,10,0,0,0
2600,51.6640108828715,39.2721250505877,10,0,0,0
2700,51.6640176623022,39.2721345394455,10,0,0,0
2800,51.6640244299166,39.2721440500903,10,0,0,0
2900,51.6640311856879,39.2721535824838,10,0,0,0
3000,51.6640379295888,39.272163136588,10,0,0,0
3100,51.6640446615924,39.2721727123648,10,0,0,0
3200,51.6640513816719,39.2721823097756,10,0,0,0
3300,51.6640580898002,39.2721919287823,10,0,0,0
3400,51.6640647859506,39.2722015693463,10,0,0,0
3500,51.6640714700963,39.272211231429,10,0,0,0
3600,51.6640781422105,39.2722209149918,10,0,0,0
3700,51.6640848022665,39.272230619996,10,0,0,0
3800,51.6640914502378,39.2722403464028,10,0,0,0
3900,51.6640980860976,39.2722500941732,10,0,0,0
4000,51.6641047098195,39.2722598632682,10,0,0,0
4100,51.6641113213769,39.2722696536488,10,0,0,0
4200,51.6641179207435,39.2722794652759,10,0,0,0
4300,51.6641245078927,39.2722892981102,10,0,0,0
4400,51.6641310827983,39.2722991521123,10,0,0,0
4500,51.6641376454339,39.2723090272428,10,0,0,0
4600,51.6641441957733,39.2723189234623,10,0,0,0
4700,51.6641507337903,39.2723288407311,10,0,0,0
4800,51.6641572594586,39.2723387790096,10,0,0,0
4900,51.6641637727523,39.272348738258,10,0,0,0
5000,51.6641702736453,39.2723587184366,10,0,0,0
5100,51.6641767621115,39.2723687195053,10,0,0,0
5200,51.6641832381249,39.2723787414242,10,0,0,0
5300,51.6641897016598,39.2723887841531,10,0,0,0
5400,51.6641961526901,39.272398847652,10,0,0,0
5500,51.6642025911902,39.2724089318805,10,0,0,0
5600,51.6642090171342,39.2724190367984,10,0,0,0
5700,51.6642154304964,39.2724291623652,10,0,0,0
5800,51.6642218312512,39.2724393085403,10,0,0,0
5900,51.664228219373,39.2724494752833,10,0,0,0
6000,51.6642345948362,39.2724596625535,10,0,0,0
6100,51.6642409576153,39.27246987031,10,0,0,0
6200,51.6642473076848,39.2724800985121,10,0,0,0
6300,51.6642536450194,39.2724903471189,10,0,0,0
6400,51.6642599695937,39.2725006160894,10,0,0,0
6500,51.6642662813824,39.2725109053824,10,0,0,0
6600,51.6642725803602,39.2725212149569,10,0,0,0
6700,51.6642788665019,39.2725315447715,10,0,0,0
6800,51.6642851397824,39.2725418947851,10,0,0,0
6900,51.6642914001766,39.2725522649561,10,0,0,0
7000,51.6642976476594,39.2725626552431,10,0,0,0
7100,51.6643038822058,39.2725730656045,10,0,0,0
7200,51.664310103791,39.2725834959987,10,0,0,0
7300,51.6643163123899,39.272593946384,10,0,0,0
7400,51.6643225079779,39.2726044167185,10,0,0,0
7500,51.66432869053,39.2726149069605,10,0,0,0
7600,51.6643348600215,39.2726254170678,10,0,0,0
7700,51.6643410164278,39.2726359469985,10,0,0,0
7800,51.6643471597242,39.2726464967105,10,0,0,0
7900,51.6643532898862,39.2726570661615,10,0,0,0
8000,51.6643594068892,39.2726676553093,10,0,0,0
8100,51.6643655107087,39.2726782641116,10,0,0,0
8200,51.6643716013204,39.2726888925258,10,0,0,0
8300,51.6643776786998,39.2726995405095,10,0,0,0
8400,51.6643837428227,39.2727102080201,10,0,0,0
8500,51.6643897936648,39.2727208950148,10,0,0,0
8600,51.6643958312018,39.2727316014511,10,0,0,0
8700,51.6644018554097,39.2727423272859,10,0,0,0
8800,51.6644078662643,39.2727530724765,10,0,0,0
8900,51.6644138637415,39.2727638369798,10,0,0,0
9000,51.6644198478175,39.2727746207528,10,0,0,0
9100,51.6644258184681,39.2727854237523,10,0,0,0
9200,51.6644317756696,39.2727962459352,10,0,0,0
9300,51.6644377193982,39.2728070872581,10,0,0,0
9400,51.6644436496299,39.2728179476777,10,0,0,0
9500,51.6644495663412,39.2728288271505,10,0,0,0
9600,51.6644554695083,39.272839725633,10,0,0,0
9700,51.6644613591076,39.2728506430816,10,0,0,0
9800,51.6644672351155,39.2728615794526,10,0,0,0
9900,51.6644730975086,39.2728725347024,10,0,0,0
10000,51.6644789462634,39.272883508787,10,0,0,0
10100,51.6644847813565,39.2728945016625,10,0,0,0
10200,51.6644906027645,39.2729055132851,10,0,0,0
10300,51.6644964104642,39.2729165436106,10,0,0,0
10400,51.6645022044322,39.2729275925949,10,0,0,0
10500,51.6645079846456,39.2729386601939,10,0,0,0
10600,51.664513751081,39.2729497463632,10,0,0,0
10700,51.6645195037154,39.2729608510585,10,0,0,0
10800,51.6645252425259,39.2729719742353,10,0,0,0
10900,51.6645309674895,39.2729831158493,10,0,0,0
11000,51.6645366785832,39.2729942758558,10,0,0,0
11100,51.6645423757842,39.2730054542101,10,0,0,0
11200,51.6645480590697,39.2730166508676,10,0,0,0
11300,51.664553728417,39.2730278657835,10,0,0,0
11400,51.6645593838034,39.2730390989128,10,0,0,0
11500,51.6645650252062,39.2730503502107,10,0,0,0
11600,51.6645706526029,39.2730616196322,10,0,0,0
11700,51.6645762659711,39.2730729071321,10,0,0,0
11800,51.6645818652881,39.2730842126654,10,0,0,0
11900,51.6645874505317,39.2730955361867,10,0,0,0
12000,51.6645930216794,39.2731068776509,10,0,0,0
12100,51.664598578709,39.2731182370125,10,0,0,0
12200,51.6646041215982,39.273129614226,10,0,0,0
12300,51.664609650325,39.2731410092461,10,0,0,0
12400,51.6646151648671,39.273152422027,10,0,0,0
12500,51.6646206652024,39.2731638525231,10,0,0,0
12600,51.6646261513091,39.2731753006888,10,0,0,0
12700,51.6646316231651,39.2731867664781,10,0,0,0
12800,51.6646370807485,39.2731982498453,10,0,0,0
12900,51.6646425240375,39.2732097507444,10,0,0,0
13000,51.6646479530104,39.2732212691294,10,0,0,0
13100,51.6646533676454,39.2732328049542,10,0,0,0
13200,51.6646587679208,39.2732443581727,10,0,0,0
13300,51.664664153815,39.2732559287386,10,0,0,0
13400,51.6646695253066,39.2732675166057,10,0,0,0
13500,51.6646748823739,39.2732791217277,10,0,0,0
13600,51.6646802249956,39.2732907440579,10,0,0,0
13700,51.6646855531502,39.2733023835501,10,0,0,0
13800,51.6646908668166,39.2733140401576,10,0,0,0
13900,51.6646961659734,39.2733257138338,10,0,0,0
14000,51.6647014505993,39.273337404532,10,0,0,0
14100,51.6647067206733,39.2733491122054,10,0,0,0
14200,51.6647119761743,39.2733608368072,10,0,0,0
14300,51.6647172170813,39.2733725782905,10,0,0,0
14400,51.6647224433732,39.2733843366082,10,0,0,0
14500,51.6647276550292,39.2733961117135,10,0,0,0
14600,51.6647328520285,39.2734079035592,10,0,0,0
14700,51.6647380343501,39.273419712098,10,0,0,0
14800,51.6647432019735,39.2734315372828,10,0,0,0
14900,51.6647483548779,39.2734433790662,10,0,0,0
15000,51.6647534930427,39.2734552374009,10,0,0,0
15100,51.6647586164473,39.2734671122395,10,0,0,0
15200,51.6647637250713,39.2734790035344,10,0,0,0
15300,51.6647688188942,39.273490911238,10,0,0,0
15400,51.6647738978956,39.2735028353028,10,0,0,0
15500,51.6647789620552,39.273514775681,10,0,0,0
15600,51.6647840113528,39.2735267323248,10,0,0,0
15700,51.6647890457681,39.2735387051865,10,0,0,0
15800,51.664794065281,39.2735506942181,10,0,0,0
15900,51.6647990698714,39.2735626993716,10,0,0,0
16000,51.6648040595193,39.2735747205991,10,0,0,0
16100,51.6648090342047,39.2735867578524,10,0,0,0
16200,51.6648139939078,39.2735988110834,10,0,0,0
16300,51.6648189386086,39.2736108802439,10,0,0,0
16400,51.6648238682875,39.2736229652855,10,0,0,0
16500,51.6648287829246,39.27363506616,10,0,0,0
16600,51.6648336825003,39.2736471828189,10,0,0,0
16700,51.6648385669951,39.2736593152138,10,0,0,0
16800,51.6648434363893,39.2736714632961,10,0,0,0
16900,51.6648482906635,39.2736836270172,10,0,0,0
17000,51.6648531297982,39.2736958063284,10,0,0,0
17100,51.6648579537742,39.2737080011811,10,0,0,0
17200,51.664862762572,39.2737202115264,10,0,0,0
17300,51.6648675561726,39.2737324373155,10,0,0,0
17400,51.6648723345565,39.2737446784995,10,0,0,0
17500,51.6648770977049,39.2737569350295,10,0,0,0
17600,51.6648818455986,39.2737692068562,10,0,0,0
17700,51.6648865782185,39.2737814939308,10,0,0,0
17800,51.6648912955459,39.273793796204,10,0,0,0
17900,51.6648959975617,39.2738061136266,10,0,0,0
18000,51.6649006842473,39.2738184461494,10,0,0,0
18100,51.6649053555837,39.2738307937229,10,0,0,0
18200,51.6649100115524,39.2738431562978,10,0,0,0
18300,51.6649146521348,39.2738555338247,10,0,0,0
18400,51.6649192773121,39.273867926254,10,0,0,0
18500,51.664923887066,39.2738803335361,10,0,0,0
18600,51.6649284813781,39.2738927556214,10,0,0,0
18700,51.6649330602298,39.2739051924603,10,0,0,0
18800,51.6649376236029,39.2739176440029,10,0,0,0
18900,51.6649421714792,39.2739301101994,10,0,0,0
19000,51.6649467038404,39.273942591,10,0,0,0
19100,51.6649512206685,39.2739550863548,10,0,0,0
19200,51.6649557219452,39.2739675962137,10,0,0,0
19300,51.6649602076527,39.2739801205266,10,0,0,0
19400,51.664964677773,39.2739926592436,10,0,0,0
19500,51.6649691322882,39.2740052123144,10,0,0,0
19600,51.6649735711804,39.2740177796888,10,0,0,0
19700,51.664977994432,39.2740303613165,10,0,0,0
19800,51.6649824020252,39.2740429571472,10,0,0,0
19900,51.6649867939424,39.2740555671305,10,0,0,0
20000,51.6649911701659,39.274068191216,10,0,0,0
20100,51.6649955306784,39.2740808293531,10,0,0,0
20200,51.6649998754623,39.2740934814913,10,0,0,0
20300,51.6650042045003,39.27410614758,10,0,0,0
20400,51.6650085177751,39.2741188275684,10,0,0,0
20500,51.6650128152693,39.2741315214059,10,0,0,0
20600,51.6650170969658,39.2741442290417,10,0,0,0
20700,51.6650213628475,39.274156950425,10,0,0,0
20800,51.6650256128973,39.2741696855048,10,0,0,0
20900,51.6650298470982,39.2741824342301,10,0,0,0
21000,51.6650340654332,39.2741951965501,10,0,0,0
21100,51.6650382678855,39.2742079724136,10,0,0,0
21200,51.6650424544383,39.2742207617695,10,0,0,0
21300,51.6650466250748,39.2742335645667,10,0,0,0
21400,51.6650507797783,39.2742463807539,10,0,0,0
21500,51.6650549185322,39.2742592102798,10,0,0,0
21600,51.6650590413199,39.2742720530932,10,0,0,0
21700,51.665063148125,39.2742849091426,10,0,0,0
21800,51.665067238931,39.2742977783767,10,0,0,0
21900,51.6650713137216,39.2743106607438,10,0,0,0
22000,51.6650753724804,39.2743235561926,10,0,0,0
22100,51.6650794151911,39.2743364646713,10,0,0,0
22200,51.6650834418378,39.2743493861284,10,0,0,0
22300,51.6650874524041,39.2743623205122,10,0,0,0
22400,51.6650914468741,39.2743752677708,10,0,0,0
22500,51.6650954252318,39.2743882278526,10,0,0,0
22600,51.6650993874612,39.2744012007056,10,0,0,0
22700,51.6651033335466,39.2744141862779,10,0,0,0
22800,51.6651072634721,39.2744271845177,10,0,0,0
22900,51.6651111772221,39.2744401953729,10,0,0,0
23000,51.6651150747807,39.2744532187914,10,0,0,0
23100,51.6651189561325,39.2744662547211,10,0,0,0
23200,51.665122821262,39.2744793031099,10,0,0,0
23300,51.6651266701536,39.2744923639056,10,0,0,0
23400,51.6651305027919,39.274505437056,10,0,0,0
23500,51.6651343191617,39.2745185225086,10,0,0,0
23600,51.6651381192476,39.2745316202112,10,0,0,0
23700,51.6651419030345,39.2745447301114,10,0,0,0
23800,51.6651456705072,39.2745578521568,10,0,0,0
23900,51.6651494216506,39.2745709862947,10,0,0,0
24000,51.6651531564497,39.2745841324727,10,0,0,0
24100,51.6651568748897,39.2745972906382,10,0,0,0
24200,51.6651605769555,39.2746104607385,10,0,0,0
24300,51.6651642626324,39.2746236427209,10,0,0,0
24400,51.6651679319057,39.2746368365327,10,0,0,0
24500,51.6651715847607,39.2746500421212,10,0,0,0
24600,51.6651752211827,39.2746632594334,10,0,0,0
24700,51.6651788411572,39.2746764884165,10,0,0,0
24800,51.6651824446697,39.2746897290176,10,0,0,0
24900,51.6651860317058,39.2747029811837,10,0,0,0
25000,51.6651896022512,39.2747162448618,10,0,0,0
25100,51.6651931562915,39.2747295199988,10,0,0,0
25200,51.6651966938126,39.2747428065415,10,0,0,0
25300,51.6652002148002,39.274756104437,10,0,0,0
25400,51.6652037192404,39.2747694136318,10,0,0,0
25500,51.665207207119,39.2747827340729,10,0,0,0
25600,51.6652106784222,39.2747960657068,10,0,0,0
25700,51.665214133136,39.2748094084803,10,0,0,0
25800,51.6652175712466,39.2748227623399,10,0,0,0
25900,51.6652209927403,39.2748361272323,10,0,0,0
26000,51.6652243976033,39.274849503104,10,0,0,0
26100,51.6652277858221,39.2748628899014,10,0,0,0
26200,51.6652311573831,39.2748762875711,10,0,0,0
26300,51.6652345122727,39.2748896960593,10,0,0,0
26400,51.6652378504776,39.2749031153125,10,0,0,0
26500,51.6652411719845,39.2749165452769,10,0,0,0
26600,51.66524447678,39.2749299858989,10,0,0,0
26700,51.6652477648508,39.2749434371246,10,0,0,0
26800,51.665251036184,39.2749568989002,10,0,0,0
26900,51.6652542907662,39.2749703711719,10,0,0,0
27000,51.6652575285847,39.2749838538858,10,0,0,0
27100,51.6652607496263,39.274997346988,10,0,0,0
27200,51.6652639538782,39.2750108504243,10,0,0,0
27300,51.6652671413275,39.2750243641409,10,0,0,0
27400,51.6652703119616,39.2750378880836,10,0,0,0
27500,51.6652734657677,39.2750514221984,10,0,0,0
27600,51.6652766027333,39.275064966431,10,0,0,0
27700,51.6652797228457,39.2750785207274,10,0,0,0
27800,51.6652828260925,39.2750920850332,10,0,0,0
27900,51.6652859124613,39.2751056592943,10,0,0,0
28000,51.6652889819396,39.2751192434562,10,0,0,0
28100,51.6652920345154,39.2751328374647,10,0,0,0
28200,51.6652950701762,39.2751464412653,10,0,0,0
28300,51.66529808891,39.2751600548036,10,0,0,0
28400,51.6653010907047,39.2751736780252,10,0,0,0
28500,51.6653040755483,39.2751873108756,10,0,0,0
28600,51.6653070434288,39.2752009533001,10,0,0,0
28700,51.6653099943344,39.2752146052443,10,0,0,0
28800,51.6653129282532,39.2752282666535,10,0,0,0
28900,51.6653158451736,39.275241937473,10,0,0,0
29000,51.6653187450838,39.2752556176481,10,0,0,0
29100,51.6653216279723,39.2752693071242,10,0,0,0
29200,51.6653244938275,39.2752830058464,10,0,0,0
29300,51.665327342638,39.27529671376,10,0,0,0
29400,51.6653301743923,39.27531043081,10,0,0,0
29500,51.6653329890791,39.2753241569416,10,0,0,0
29600,51.6653357866871,39.2753378920999,10,0,0,0
29700,51.6653385672053,39.27535163623,10,0,0,0
29800,51.6653413306223,39.2753653892768,10,0,0,0
29900,51.6653440769273,39.2753791511853,10,0,0,0
30000,51.6653468061091,39.2753929219004,10,0,0,0
30100,51.665349518157,39.2754067013671,10,0,0,0
30200,51.6653522130599,39.2754204895303,10,0,0,0
30300,51.6653548908072,39.2754342863347,10,0,0,0
30400,51.6653575513881,39.2754480917251,10,0,0,0
30500,51.665360194792,39.2754619056464,10,0,0,0
30600,51.6653628210083,39.2754757280432,10,0,0,0
30700,51.6653654300264,39.2754895588602,10,0,0,0
30800,51.6653680218361,39.2755033980422,10,0,0,0
30900,51.6653705964268,39.2755172455337,10,0,0,0
31000,51.6653731537883,39.2755311012793,10,0,0,0
31100,51.6653756939104,39.2755449652237,10,0,0,0
31200,51.6653782167829,39.2755588373112,10,0,0,0
31300,51.6653807223956,39.2755727174865,10,0,0,0
31400,51.6653832107386,39.275586605694,10,0,0,0
31500,51.665385681802,39.2756005018781,10,0,0,0
31600,51.6653881355757,39.2756144059832,10,0,0,0
31700,51.6653905720501,39.2756283179537,10,0,0,0
31800,51.6653929912153,39.275642237734,10,0,0,0
31900,51.6653953930618,39.2756561652682,10,0,0,0
32000,51.6653977775797,39.2756701005008,10,0,0,0
32100,51.6654001447598,39.2756840433759,10,0,0,0
32200,51.6654024945923,39.2756979938378,10,0,0,0
32300,51.6654048270681,39.2757119518307,10,0,0,0
32400,51.6654071421776,39.2757259172986,10,0,0,0
32500,51.6654094399117,39.2757398901858,10,0,0,0
32600,51.6654117202612,39.2757538704363,10,0,0,0
32700,51.6654139832169,39.2757678579942,10,0,0,0
32800,51.6654162287698,39.2757818528035,10,0,0,0
32900,51.665418456911,39.2757958548082,10,0,0,0
33000,51.6654206676314,39.2758098639524,10,0,0,0
33100,51.6654228609222,39.2758238801798,10,0,0,0
33200,51.6654250367748,39.2758379034346,10,0,0,0
33300,51.6654271951802,39.2758519336605,10,0,0,0
33400,51.6654293361301,39.2758659708015,10,0,0,0
33500,51.6654314596156,39.2758800148013,10,0,0,0
33600,51.6654335656285,39.2758940656038,10,0,0,0
33700,51.6654356541601,39.2759081231527,10,0,0,0
33800,51.6654377252023,39.2759221873918,10,0,0,0
33900,51.6654397787466,39.2759362582649,10,0,0,0
34000,51.6654418147849,39.2759503357156,10,0,0,0
34100,51.6654438333091,39.2759644196876,10,0,0,0
34200,51.665445834311,39.2759785101246,10,0,0,0
34300,51.6654478177827,39.2759926069702,10,0,0,0
34400,51.6654497837161,39.2760067101679,10,0,0,0
34500,51.6654517321035,39.2760208196614,10,0,0,0
34600,51.6654536629371,39.2760349353942,10,0,0,0
34700,51.6654555762091,39.2760490573098,10,0,0,0
34800,51.6654574719119,39.2760631853518,10,0,0,0
34900,51.6654593500378,39.2760773194635,10,0,0,0
35000,51.6654612105794,39.2760914595884,10,0,0,0
35100,51.6654630535293,39.27610560567,10,0,0,0
35200,51.6654648788799,39.2761197576517,10,0,0,0
35300,51.6654666866242,39.2761339154768,10,0,0,0
35400,51.6654684767547,39.2761480790887,10,0,0,0
35500,51.6654702492644,39.2761622484307,10,0,0,0
35600,51.6654720041462,39.2761764234462,10,0,0,0
35700,51.665473741393,39.2761906040783,10,0,0,0
35800,51.6654754609979,39.2762047902705,10,0,0,0
35900,51.665477162954,39.2762189819658,10,0,0,0
36000,51.6654788472545,39.2762331791076,10,0,0,0
36100,51.6654805138926,39.276247381639,10,0,0,0
36200,51.6654821628618,39.2762615895032,10,0,0,0
36300,51.6654837941553,39.2762758026433,10,0,0,0
36400,51.6654854077667,39.2762900210025,10,0,0,0
36500,51.6654870036895,39.2763042445239,10,0,0,0
36600,51.6654885819174,39.2763184731506,10,0,0,0
36700,51.6654901424439,39.2763327068257,10,0,0,0
36800,51.6654916852629,39.2763469454921,10,0,0,0
36900,51.6654932103682,39.276361189093,10,0,0,0
37000,51.6654947177537,39.2763754375713,10,0,0,0
37100,51.6654962074134,39.2763896908701,10,0,0,0
37200,51.6654976793412,39.2764039489322,10,0,0,0
37300,51.6654991335314,39.2764182117008,10,0,0,0
37400,51.665500569978,39.2764324791185,10,0,0,0
37500,51.6655019886754,39.2764467511285,10,0,0,0
37600,51.6655033896178,39.2764610276736,10,0,0,0
37700,51.6655047727998,39.2764753086967,10,0,0,0
37800,51.6655061382156,39.2764895941405,10,0,0,0
37900,51.6655074858599,39.2765038839481,10,0,0,0
38000,51.6655088157273,39.2765181780621,10,0,0,0
38100,51.6655101278124,39.2765324764255,10,0,0,0
38200,51.66551142211,39.276546778981,10,0,0,0
38300,51.665512698615,39.2765610856713,10,0,0,0
38400,51.6655139573221,39.2765753964392,10,0,0,0
38500,51.6655151982265,39.2765897112275,10,0,0,0
38600,51.665516421323,39.2766040299789,10,0,0,0
38700,51.6655176266069,39.2766183526361,10,0,0,0
38800,51.6655188140732,39.2766326791418,10,0,0,0
38900,51.6655199837173,39.2766470094387,10,0,0,0
39000,51.6655211355345,39.2766613434694,10,0,0,0
39100,51.6655222695201,39.2766756811765,10,0,0,0
39200,51.6655233856697,39.2766900225028,10,0,0,0
39300,51.6655244839787,39.2767043673908,10,0,0,0
39400,51.6655255644427,39.2767187157832,10,0,0,0
39500,51.6655266270575,39.2767330676224,10,0,0,0
39600,51.6655276718188,39.2767474228512,10,0,0,0
39700,51.6655286987224,39.276761781412,10,0,0,0
39800,51.6655297077641,39.2767761432474,10,0,0,0
39900,51.6655306989401,39.2767905083,10,0,0,0
40000,51.6655316722462,39.2768048765122,10,0,0,0
40100,51.6655326276786,39.2768192478267,10,0,0,0
40200,51.6655335652335,39.2768336221858,10,0,0,0
40300,51.6655344849071,39.276847999532,10,0,0,0
40400,51.6655353866958,39.2768623798079,10,0,0,0
40500,51.6655362705959,39.2768767629559,10,0,0,0
40600,51.6655371366039,39.2768911489185,10,0,0,0
40700,51.6655379847163,39.276905537638,10,0,0,0
40800,51.6655388149298,39.276919929057,10,0,0,0
40900,51.6655396272409,39.2769343231177,10,0,0,0
41000,51.6655404216466,39.2769487197628,10,0,0,0
41100,51.6655411981435,39.2769631189344,10,0,0,0
41200,51.6655419567287,39.2769775205751,10,0,0,0
41300,51.6655426973989,39.2769919246272,10,0,0,0
41400,51.6655434201514,39.2770063310331,10,0,0,0
41500,51.6655441249832,39.2770207397351,10,0,0,0
41600,51.6655448118914,39.2770351506755,10,0,0,0
41700,51.6655454808733,39.2770495637968,10,0,0,0
41800,51.6655461319263,39.2770639790412,10,0,0,0
41900,51.6655467650477,39.2770783963511,10,0,0,0
42000,51.6655473802351,39.2770928156688,10,0,0,0
42100,51.6655479774859,39.2771072369365,10,0,0,0
42200,51.6655485567977,39.2771216600966,10,0,0,0
42300,51.6655491181683,39.2771360850914,10,0,0,0
42400,51.6655496615954,39.2771505118632,10,0,0,0
42500,51.6655501870768,39.2771649403542,10,0,0,0
42600,51.6655506946104,39.2771793705067,10,0,0,0
42700,51.6655511841942,39.2771938022629,10,0,0,0
42800,51.6655516558262,39.2772082355652,10,0,0,0
42900,51.6655521095046,39.2772226703557,10,0,0,0
43000,51.6655525452274,39.2772371065768,10,0,0,0
43100,51.6655529629931,39.2772515441706,10,0,0,0
43200,51.6655533627999,39.2772659830794,10,0,0,0
43300,51.6655537446462,39.2772804232454,10,0,0,0
43400,51.6655541085304,39.2772948646108,10,0,0,0
43500,51.6655544544512,39.2773093071179,10,0,0,0
43600,51.6655547824072,39.2773237507089,10,0,0,0
43700,51.6655550923969,39.2773381953259,10,0,0,0
43800,51.6655553844193,39.2773526409112,10,0,0,0
43900,51.665555658473,39.277367087407,10,0,0,0
44000,51.6655559145571,39.2773815347554,10,0,0,0
44100,51.6655561526705,39.2773959828987,10,0,0,0
44200,51.6655563728123,39.2774104317791,10,0,0,0
44300,51.6655565749815,39.2774248813387,10,0,0,0
44400,51.6655567591773,39.2774393315198,10,0,0,0
44500,51.6655569253991,39.2774537822645,10,0,0,0
44600,51.6655570736461,39.2774682335149,10,0,0,0
44700,51.6655572039178,39.2774826852133,10,0,0,0
44800,51.6655573162137,39.2774971373019,10,0,0,0
44900,51.6655574105332,39.2775115897228,10,0,0,0
45000,51.6655574868761,39.2775260424182,10,0,0,0
45100,51.6655575452419,39.2775404953302,10,0,0,0
45200,51.6655575856306,39.2775549484011,10,0,0,0
45300,51.6655576080418,39.277569401573,10,0,0,0
45400,51.6655576124756,39.2775838547881,10,0,0,0
45500,51.6655575989318,39.2775983079885,10,0,0,0
45600,51.6655575674107,39.2776127611165,10,0,0,0
45700,51.6655575179122,39.2776272141141,10,0,0,0
45800,51.6655574504366,39.2776416669236,10,0,0,0
45900,51.6655573649841,39.2776561194871,10,0,0,0
46000,51.6655572615552,39.2776705717468,10,0,0,0
46100,51.6655571401502,39.2776850236449,10,0,0,0
46200,51.6655570007695,39.2776994751235,10,0,0,0
46300,51.6655568434138,39.2777139261249,10,0,0,0
46400,51.6655566680837,39.2777283765912,10,0,0,0
46500,51.6655564747799,39.2777428264646,10,0,0,0
46600,51.6655562635031,39.2777572756872,10,0,0,0
46700,51.6655560342543,39.2777717242013,10,0,0,0
46800,51.6655557870342,39.2777861719491,10,0,0,0
46900,51.665555521844,39.2778006188726,10,0,0,0
47000,51.6655552386846,39.2778150649143,10,0,0,0
47100,51.6655549375573,39.2778295100161,10,0,0,0
47200,51.6655546184631,39.2778439541204,10,0,0,0
47300,51.6655542814035,39.2778583971693,10,0,0,0
47400,51.6655539263796,39.2778728391051,10,0,0,0
47500,51.6655535533931,39.27788727987,10,0,0,0
47600,51.6655531624452,39.2779017194061,10,0,0,0
47700,51.6655527535377,39.2779161576558,10,0,0,0
47800,51.6655523266722,39.2779305945612,10,0,0,0
47900,51.6655518818503,39.2779450300646,10,0,0,0
48000,51.6655514190738,39.2779594641081,10,0,0,0
48100,51.6655509383446,39.2779738966342,10,0,0,0
48200,51.6655504396646,39.277988327585,10,0,0,0
48300,51.6655499230358,39.2780027569027,10,0,0,0
48400,51.6655493884603,39.2780171845297,10,0,0,0
48500,51.6655488359402,39.2780316104082,10,0,0,0
48600,51.6655482654778,39.2780460344805,10,0,0,0
48700,51.6655476770752,39.2780604566889,10,0,0,0
48800,51.6655470707349,39.2780748769757,10,0,0,0
48900,51.6655464464593,39.2780892952831,10,0,0,0
49000,51.6655458042508,39.2781037115536,10,0,0,0
49100,51.6655451441121,39.2781181257293,10,0,0,0
49200,51.6655444660458,39.2781325377527,10,0,0,0
49300,51.6655437700547,39.278146947566,10,0,0,0
49400,51.6655430561414,39.2781613551117,10,0,0,0
49500,51.6655423243088,39.278175760332,10,0,0,0
49600,51.6655415745599,39.2781901631693,10,0,0,0
49700,51.6655408068977,39.278204563566,10,0,0,0
49800,51.6655400213253,39.2782189614646,10,0,0,0
49900,51.6655392178457,39.2782333568072,10,0,0,0
50000,51.6655383964623,39.2782477495365,10,0,0,0
50100,51.6655375571782,39.2782621395947,10,0,0,0
50200,51.6655366999969,39.2782765269244,10,0,0,0
50300,51.6655358249218,39.2782909114679,10,0,0,0
50400,51.6655349319564,39.2783052931676,10,0,0,0
50500,51.6655340211042,39.2783196719662,10,0,0,0
50600,51.6655330923689,39.2783340478059,10,0,0,0
50700,51.6655321457542,39.2783484206293,10,0,0,0
50800,51.6655311812639,39.2783627903789,10,0,0,0
50900,51.6655301989019,39.2783771569972,10,0,0,0
51000,51.6655291986721,39.2783915204267,10,0,0,0
51100,51.6655281805784,39.2784058806099,10,0,0,0
51200,51.6655271446251,39.2784202374894,10,0,0,0
51300,51.6655260908161,39.2784345910077,10,0,0,0
51400,51.6655250191558,39.2784489411075,10,0,0,0
51500,51.6655239296484,39.2784632877312,10,0,0,0
51600,51.6655228222983,39.2784776308215,10,0,0,0
51700,51.6655216971099,39.278491970321,10,0,0,0
51800,51.6655205540877,39.2785063061723,10,0,0,0
51900,51.6655193932362,39.278520638318,10,0,0,0
52000,51.6655182145602,39.2785349667009,10,0,0,0
52100,51.6655170180644,39.2785492912636,10,0,0,0
52200,51.6655158037535,39.2785636119487,10,0,0,0
52300,51.6655145716324,39.278577928699,10,0,0,0
52400,51.6655133217059,39.2785922414572,10,0,0,0
52500,51.6655120539792,39.278606550166,10,0,0,0
52600,51.6655107684574,39.2786208547681,10,0,0,0
52700,51.6655094651454,39.2786351552064,10,0,0,0
52800,51.6655081440486,39.2786494514236,10,0,0,0
52900,51.6655068051722,39.2786637433625,10,0,0,0
53000,51.6655054485216,39.278678030966,10,0,0,0
53100,51.6655040741023,39.2786923141768,10,0,0,0
53200,51.6655026819196,39.2787065929378,10,0,0,0
53300,51.6655012719793,39.2787208671919,10,0,0,0
53400,51.6654998442869,39.2787351368819,10,0,0,0
53500,51.6654983988481,39.2787494019508,10,0,0,0
53600,51.6654969356688,39.2787636623416,10,0,0,0
53700,51.6654954547548,39.278777917997,10,0,0,0
53800,51.6654939561119,39.2787921688602,10,0,0,0
53900,51.6654924397463,39.278806414874,10,0,0,0
54000,51.6654909056639,39.2788206559815,10,0,0,0
54100,51.665489353871,39.2788348921258,10,0,0,0
54200,51.6654877843736,39.2788491232497,10,0,0,0
54300,51.6654861971782,39.2788633492964,10,0,0,0
54400,51.665484592291,39.2788775702091,10,0,0,0
54500,51.6654829697185,39.2788917859307,10,0,0,0
54600,51.6654813294671,39.2789059964044,10,0,0,0
54700,51.6654796715435,39.2789202015733,10,0,0,0
54800,51.6654779959543,39.2789344013806,10,0,0,0
54900,51.6654763027061,39.2789485957696,10,0,0,0
55000,51.6654745918057,39.2789627846833,10,0,0,0
55100,51.6654728632601,39.278976968065,10,0,0,0
55200,51.665471117076,39.2789911458581,10,0,0,0
55300,51.6654693532605,39.2790053180056,10,0,0,0
55400,51.6654675718207,39.279019484451,10,0,0,0
55500,51.6654657727636,39.2790336451376,10,0,0,0
55600,51.6654639560965,39.2790478000087,10,0,0,0
55700,51.6654621218267,39.2790619490076,10,0,0,0
55800,51.6654602699614,39.2790760920778,10,0,0,0
55900,51.6654584005081,39.2790902291627,10,0,0,0
56000,51.6654565134743,39.2791043602056,10,0,0,0
56100,51.6654546088675,39.2791184851502,10,0,0,0
56200,51.6654526866954,39.2791326039397,10,0,0,0
56300,51.6654507469656,39.2791467165179,10,0,0,0
56400,51.6654487896858,39.2791608228281,10,0,0,0
56500,51.665446814864,39.279174922814,10,0,0,0
56600,51.665444822508,39.2791890164191,10,0,0,0
56700,51.6654428126259,39.279203103587,10,0,0,0
56800,51.6654407852255,39.2792171842614,10,0,0,0
56900,51.6654387403151,39.279231258386,10,0,0,0
57000,51.6654366779029,39.2792453259044,10,0,0,0
57100,51.665434597997,39.2792593867604,10,0,0,0
57200,51.6654325006058,39.2792734408976,10,0,0,0
57300,51.6654303857377,39.2792874882599,10,0,0,0
57400,51.6654282534012,39.2793015287911,10,0,0,0
57500,51.6654261036048,39.2793155624349,10,0,0,0
57600,51.6654239363571,39.2793295891352,10,0,0,0
57700,51.6654217516667,39.279343608836,10,0,0,0
57800,51.6654195495424,39.279357621481,10,0,0,0
57900,51.6654173299931,39.2793716270143,10,0,0,0
58000,51.6654150930276,39.2793856253798,10,0,0,0
58100,51.6654128386548,39.2793996165215,10,0,0,0
58200,51.6654105668837,39.2794136003834,10,0,0,0
58300,51.6654082777236,39.2794275769096,10,0,0,0
58400,51.6654059711834,39.2794415460441,10,0,0,0
58500,51.6654036472725,39.2794555077311,10,0,0,0
58600,51.6654013060002,39.2794694619147,10,0,0,0
58700,51.6653989473757,39.279483408539,10,0,0,0
58800,51.6653965714086,39.2794973475483,10,0,0,0
58900,51.6653941781084,39.2795112788868,10,0,0,0
59000,51.6653917674846,39.2795252024987,10,0,0,0
59100,51.6653893395469,39.2795391183284,10,0,0,0
59200,51.6653868943049,39.2795530263201,10,0,0,0
59300,51.6653844317686,39.2795669264183,10,0,0,0
59400,51.6653819519477,39.2795808185672,10,0,0,0
59500,51.6653794548521,39.2795947027114,10,0,0,0
59600,51.6653769404918,39.2796085787952,10,0,0,0
59700,51.665374408877,39.2796224467632,10,0,0,0
59800,51.6653718600177,39.2796363065598,10,0,0,0
59900,51.6653692939241,39.2796501581296,10,0,0,0
60000,51.6653667106065,39.2796640014173,10,0,0,0
60100,51.6653641100753,39.2796778363673,10,0,0,0
60200,51.6653614923408,39.2796916629243,10,0,0,0
60300,51.6653588574135,39.2797054810331,10,0,0,0
60400,51.6653562053039,39.2797192906384,10,0,0,0
60500,51.6653535360227,39.2797330916848,10,0,0,0
60600,51.6653508495806,39.2797468841172,10,0,0,0
60700,51.6653481459883,39.2797606678804,10,0,0,0
60800,51.6653454252565,39.2797744429192,10,0,0,0
60900,51.6653426873963,39.2797882091785,10,0,0,0
61000,51.6653399324185,39.2798019666033,10,0,0,0
61100,51.6653371603342,39.2798157151384,10,0,0,0
61200,51.6653343711545,39.279829454729,10,0,0,0
61300,51.6653315648905,39.2798431853199,10,0,0,0
61400,51.6653287415535,39.2798569068564,10,0,0,0
61500,51.6653259011547,39.2798706192834,10,0,0,0
61600,51.6653230437055,39.2798843225462,10,0,0,0
61700,51.6653201692174,39.2798980165898,10,0,0,0
61800,51.6653172777018,39.2799117013596,10,0,0,0
61900,51.6653143691703,39.2799253768007,10,0,0,0
62000,51.6653114436346,39.2799390428584,10,0,0,0
62100,51.6653085011064,39.2799526994781,10,0,0,0
62200,51.6653055415974,39.2799663466051,10,0,0,0
62300,51.6653025651195,39.2799799841848,10,0,0,0
62400,51.6652995716845,39.2799936121626,10,0,0,0
62500,51.6652965613045,39.2800072304841,10,0,0,0
62600,51.6652935339916,39.2800208390948,10,0,0,0
62700,51.6652904897578,39.2800344379401,10,0,0,0
62800,51.6652874286152,39.2800480269657,10,0,0,0
62900,51.6652843505762,39.2800616061172,10,0,0,0
63000,51.6652812556531,39.2800751753403,10,0,0,0
63100,51.6652781438582,39.2800887345806,10,0,0,0
63200,51.6652750152041,39.2801022837841,10,0,0,0
63300,51.6652718697031,39.2801158228963,10,0,0,0
63400,51.6652687073679,39.2801293518633,10,0,0,0
63500,51.6652655282112,39.2801428706307,10,0,0,0
63600,51.6652623322457,39.2801563791446,10,0,0,0
63700,51.6652591194841,39.2801698773509,10,0,0,0
63800,51.6652558899394,39.2801833651956,10,0,0,0
63900,51.6652526436243,39.2801968426248,10,0,0,0
64000,51.6652493805521,39.2802103095844,10,0,0,0
64100,51.6652461007356,39.2802237660207,10,0,0,0
64200,51.665242804188,39.2802372118797,10,0,0,0
64300,51.6652394909225,39.2802506471078,10,0,0,0
64400,51.6652361609523,39.2802640716511,10,0,0,0
64500,51.6652328142909,39.2802774854559,10,0,0,0
64600,51.6652294509515,39.2802908884686,10,0,0,0
64700,51.6652260709476,39.2803042806355,10,0,0,0
64800,51.6652226742928,39.2803176619031,10,0,0,0
64900,51.6652192610006,39.2803310322178,10,0,0,0
65000,51.6652158310847,39.2803443915261,10,0,0,0
65100,51.6652123845588,39.2803577397746,10,0,0,0
65200,51.6652089214367,39.2803710769098,10,0,0,0
65300,51.6652054417323,39.2803844028785,10,0,0,0
65400,51.6652019454595,39.2803977176273,10,0,0,0
65500,51.6651984326322,39.2804110211029,10,0,0,0
65600,51.6651949032646,39.2804243132521,10,0,0,0
65700,51.6651913573708,39.2804375940217,10,0,0,0
65800,51.6651877949648,39.2804508633586,10,0,0,0
65900,51.6651842160611,39.2804641212097,10,0,0,0
66000,51.6651806206739,39.2804773675219,10,0,0,0
66100,51.6651770088175,39.2804906022423,10,0,0,0
66200,51.6651733805066,39.2805038253179,10,0,0,0
66300,51.6651697357555,39.2805170366958,10,0,0,0
66400,51.6651660745789,39.2805302363231,10,0,0,0
66500,51.6651623969913,39.2805434241471,10,0,0,0
66600,51.6651587030075,39.2805566001149,10,0,0,0
66700,51.6651549926424,39.2805697641739,10,0,0,0
66800,51.6651512659107,39.2805829162714,10,0,0,0
66900,51.6651475228273,39.2805960563548,10,0,0,0
67000,51.6651437634073,39.2806091843714,10,0,0,0
67100,51.6651399876656,39.2806223002688,10,0,0,0
67200,51.6651361956174,39.2806354039945,10,0,0,0
67300,51.6651323872779,39.2806484954961,10,0,0,0
67400,51.6651285626622,39.2806615747212,10,0,0,0
67500,51.6651247217857,39.2806746416175,10,0,0,0
67600,51.6651208646638,39.2806876961326,10,0,0,0
67700,51.6651169913119,39.2807007382144,10,0,0,0
67800,51.6651131017454,39.2807137678107,10,0,0,0
67900,51.66510919598,39.2807267848693,10,0,0,0
68000,51.6651052740312,39.2807397893382,10,0,0,0
68100,51.6651013359149,39.2807527811653,10,0,0,0
68200,51.6650973816466,39.2807657602987,10,0,0,0
68300,51.6650934112423,39.2807787266865,10,0,0,0
68400,51.6650894247178,39.2807916802767,10,0,0,0
68500,51.6650854220891,39.2808046210176,10,0,0,0
68600,51.6650814033722,39.2808175488573,10,0,0,0
68700,51.6650773685832,39.2808304637442,10,0,0,0
68800,51.6650733177381,39.2808433656265,10,0,0,0
68900,51.6650692508533,39.2808562544527,10,0,0,0
69000,51.665065167945,39.2808691301712,10,0,0,0
69100,51.6650610690296,39.2808819927304,10,0,0,0
69200,51.6650569541233,39.280894842079,10,0,0,0
69300,51.6650528232428,39.2809076781655,10,0,0,0
69400,51.6650486764044,39.2809205009385,10,0,0,0
69500,51.6650445136249,39.2809333103468,10,0,0,0
69600,51.6650403349209,39.2809461063391,10,0,0,0
69700,51.665036140309,39.2809588888643,10,0,0,0
69800,51.6650319298062,39.2809716578711,10,0,0,0
69900,51.6650277034291,39.2809844133084,10,0,0,0
70000,51.6650234611948,39.2809971551254,10,0,0,0
70100,51.6650192031201,39.2810098832709,10,0,0,0
70200,51.6650149292223,39.2810225976941,10,0,0,0
70300,51.6650106395182,39.281035298344,10,0,0,0
70400,51.6650063340252,39.28104798517,10,0,0,0
70500,51.6650020127603,39.2810606581212,10,0,0,0
70600,51.664997675741,39.2810733171469,10,0,0,0
70700,51.6649933229846,39.2810859621964,10,0,0,0
70800,51.6649889545085,39.2810985932193,10,0,0,0
70900,51.6649845703301,39.2811112101649,10,0,0,0
71000,51.664980170467,39.2811238129828,10,0,0,0
71100,51.6649757549368,39.2811364016226,10,0,0,0
71200,51.6649713237573,39.2811489760338,10,0,0,0
71300,51.664966876946,39.2811615361662,10,0,0,0
71400,51.6649624145208,39.2811740819696,10,0,0,0
71500,51.6649579364996,39.2811866133937,10,0,0,0
71600,51.6649534429002,39.2811991303884,10,0,0,0
71700,51.6649489337407,39.2812116329037,10,0,0,0
71800,51.6649444090391,39.2812241208895,10,0,0,0
71900,51.6649398688134,39.2812365942958,10,0,0,0
72000,51.6649353130819,39.2812490530728,10,0,0,0
72100,51.6649307418628,39.2812614971706,10,0,0,0
72200,51.6649261551744,39.2812739265394,10,0,0,0
72300,51.664921553035,39.2812863411295,10,0,0,0
72400,51.6649169354631,39.2812987408913,10,0,0,0
72500,51.664912302477,39.2813111257751,10,0,0,0
72600,51.6649076540954,39.2813234957313,10,0,0,0
72700,51.6649029903369,39.2813358507106,10,0,0,0
72800,51.66489831122,39.2813481906634,10,0,0,0
72900,51.6648936167636,39.2813605155404,10,0,0,0
73000,51.6648889069864,39.2813728252924,10,0,0,0
73100,51.6648841819073,39.2813851198699,10,0,0,0
73200,51.6648794415451,39.2813973992239,10,0,0,0
73300,51.6648746859189,39.2814096633052,10,0,0,0
73400,51.6648699150476,39.2814219120648,10,0,0,0
73500,51.6648651289503,39.2814341454537,10,0,0,0
73600,51.6648603276463,39.2814463634229,10,0,0,0
73700,51.6648555111546,39.2814585659235,10,0,0,0
73800,51.6648506794947,39.2814707529068,10,0,0,0
73900,51.6648458326857,39.2814829243239,10,0,0,0
74000,51.6648409707471,39.2814950801262,10,0,0,0
74100,51.6648360936984,39.2815072202651,10,0,0,0
74200,51.664831201559,39.281519344692,10,0,0,0
74300,51.6648262943485,39.2815314533583,10,0,0,0
74400,51.6648213720866,39.2815435462157,10,0,0,0
74500,51.664816434793,39.2815556232157,10,0,0,0
74600,51.6648114824874,39.28156768431,10,0,0,0
74700,51.6648065151897,39.2815797294505,10,0,0,0
74800,51.6648015329196,39.2815917585888,10,0,0,0
74900,51.6647965356972,39.281603771677,10,0,0,0
75000,51.6647915235424,39.2816157686668,10,0,0,0
75100,51.6647864964753,39.2816277495104,10,0,0,0
75200,51.664781454516,39.2816397141598,10,0,0,0
75300,51.6647763976847,39.2816516625671,10,0,0,0
75400,51.6647713260016,39.2816635946845,10,0,0,0
75500,51.664766239487,39.2816755104644,10,0,0,0
75600,51.6647611381612,39.2816874098589,10,0,0,0
75700,51.6647560220446,39.2816992928206,10,0,0,0
75800,51.6647508911578,39.2817111593019,10,0,0,0
75900,51.6647457455213,39.2817230092553,10,0,0,0
76000,51.6647405851556,39.2817348426334,10,0,0,0
76100,51.6647354100814,39.2817466593889,10,0,0,0
76200,51.6647302203194,39.2817584594745,10,0,0,0
76300,51.6647250158903,39.2817702428429,10,0,0,0
76400,51.664719796815,39.2817820094472,10,0,0,0
76500,51.6647145631144,39.2817937592401,10,0,0,0
76600,51.6647093148094,39.2818054921746,10,0,0,0
76700,51.664704051921,39.281817208204,10,0,0,0
76800,51.6646987744703,39.2818289072811,10,0,0,0
76900,51.6646934824783,39.2818405893594,10,0,0,0
77000,51.6646881759662,39.281852254392,10,0,0,0
77100,51.6646828549554,39.2818639023322,10,0,0,0
77200,51.664677519467,39.2818755331336,10,0,0,0
77300,51.6646721695224,39.2818871467494,10,0,0,0
77400,51.664666805143,39.2818987431334,10,0,0,0
77500,51.6646614263503,39.281910322239,10,0,0,0
77600,51.6646560331658,39.28192188402,10,0,0,0
77700,51.6646506256111,39.2819334284302,10,0,0,0
77800,51.6646452037078,39.2819449554232,10,0,0,0
77900,51.6646397674776,39.2819564649531,10,0,0,0
78000,51.6646343169423,39.2819679569738,10,0,0,0
78100,51.6646288521236,39.2819794314393,10,0,0,0
78200,51.6646233730434,39.2819908883037,10,0,0,0
78300,51.6646178797237,39.2820023275212,10,0,0,0
78400,51.6646123721865,39.282013749046,10,0,0,0
78500,51.6646068504537,39.2820251528324,10,0,0,0
78600,51.6646013145474,39.2820365388348,10,0,0,0
78700,51.6645957644898,39.2820479070077,10,0,0,0
78800,51.6645902003032,39.2820592573056,10,0,0,0
78900,51.6645846220097,39.282070589683,10,0,0,0
79000,51.6645790296317,39.2820819040947,10,0,0,0
79100,51.6645734231916,39.2820932004953,10,0,0,0
79200,51.6645678027118,39.2821044788398,10,0,0,0
79300,51.6645621682147,39.2821157390829,10,0,0,0
79400,51.664556519723,39.2821269811796,10,0,0,0
79500,51.6645508572592,39.282138205085,10,0,0,0
79600,51.6645451808459,39.2821494107542,10,0,0,0
79700,51.664539490506,39.2821605981423,10,0,0,0
79800,51.6645337862621,39.2821717672046,10,0,0,0
79900,51.6645280681371,39.2821829178963,10,0,0,0
80000,51.6645223361539,39.282194050173,10,0,0,0
80100,51.6645165903353,39.28220516399,10,0,0,0
80200,51.6645108307044,39.282216259303,10,0,0,0
80300,51.6645050572843,39.2822273360674,10,0,0,0
80400,51.6644992700979,39.2822383942391,10,0,0,0
80500,51.6644934691686,39.2822494337737,10,0,0,0
80600,51.6644876545194,39.2822604546271,10,0,0,0
80700,51.6644818261736,39.2822714567553,10,0,0,0
80800,51.6644759841547,39.2822824401142,10,0,0,0
80900,51.6644701284858,39.2822934046598,10,0,0,0
81000,51.6644642591906,39.2823043503484,10,0,0,0
81100,51.6644583762923,39.2823152771361,10,0,0,0
81200,51.6644524798147,39.2823261849792,10,0,0,0
81300,51.6644465697812,39.2823370738341,10,0,0,0
81400,51.6644406462156,39.2823479436573,10,0,0,0
81500,51.6644347091415,39.2823587944052,10,0,0,0
81600,51.6644287585827,39.2823696260344,10,0,0,0
81700,51.6644227945629,39.2823804385017,10,0,0,0
81800,51.6644168171061,39.2823912317637,10,0,0,0
81900,51.6644108262362,39.2824020057773,10,0,0,0
82000,51.664404821977,39.2824127604994,10,0,0,0
82100,51.6643988043528,39.2824234958869,10,0,0,0
82200,51.6643927733874,39.282434211897,10,0,0,0
82300,51.6643867291051,39.2824449084868,10,0,0,0
82400,51.6643806715301,39.2824555856134,10,0,0,0
82500,51.6643746006865,39.2824662432342,10,0,0,0
82600,51.6643685165987,39.2824768813065,10,0,0,0
82700,51.664362419291,39.2824874997878,10,0,0,0
82800,51.6643563087877,39.2824980986356,10,0,0,0
82900,51.6643501851135,39.2825086778075,10,0,0,0
83000,51.6643440482926,39.2825192372612,10,0,0,0
83100,51.6643378983498,39.2825297769545,10,0,0,0
83200,51.6643317353096,39.2825402968451,10,0,0,0
83300,51.6643255591966,39.2825507968911,10,0,0,0
83400,51.6643193700356,39.2825612770503,10,0,0,0
83500,51.6643131678513,39.2825717372809,10,0,0,0
83600,51.6643069526686,39.2825821775411,10,0,0,0
83700,51.6643007245123,39.2825925977891,10,0,0,0
83800,51.6642944834073,39.2826029979831,10,0,0,0
83900,51.6642882293786,39.2826133780817,10,0,0,0
84000,51.6642819624513,39.2826237380432,10,0,0,0
84100,51.6642756826503,39.2826340778263,10,0,0,0
84200,51.6642693900009,39.2826443973895,10,0,0,0
84300,51.6642630845281,39.2826546966917,10,0,0,0
84400,51.6642567662573,39.2826649756915,10,0,0,0
84500,51.6642504352136,39.282675234348,10,0,0,0
84600,51.6642440914225,39.28268547262,10,0,0,0
84700,51.6642377349093,39.2826956904665,10,0,0,0
84800,51.6642313656995,39.2827058878468,10,0,0,0
84900,51.6642249838184,39.2827160647201,10,0,0,0
85000,51.6642185892918,39.2827262210456,10,0,0,0
85100,51.664212182145,39.2827363567827,10,0,0,0
85200,51.6642057624039,39.2827464718908,10,0,0,0
85300,51.664199330094,39.2827565663295,10,0,0,0
85400,51.664192885241,39.2827666400585,10,0,0,0
85500,51.6641864278709,39.2827766930374,10,0,0,0
85600,51.6641799580094,39.282786725226,10,0,0,0
85700,51.6641734756823,39.2827967365842,10,0,0,0
85800,51.6641669809157,39.282806727072,10,0,0,0
85900,51.6641604737355,39.2828166966493,10,0,0,0
86000,51.6641539541678,39.2828266452764,10,0,0,0
86100,51.6641474222386,39.2828365729133,10,0,0,0
86200,51.664140877974,39.2828464795205,10,0,0,0
86300,51.6641343214003,39.2828563650582,10,0,0,0
86400,51.6641277525437,39.282866229487,10,0,0,0
86500,51.6641211714305,39.2828760727674,10,0,0,0
86600,51.6641145780869,39.28288589486,10,0,0,0
86700,51.6641079725394,39.2828956957255,10,0,0,0
86800,51.6641013548144,39.2829054753247,10,0,0,0
86900,51.6640947249384,39.2829152336185,10,0,0,0
87000,51.6640880829379,39.2829249705679,10,0,0,0
87100,51.6640814288394,39.2829346861339,10,0,0,0
87200,51.6640747626696,39.2829443802777,10,0,0,0
87300,51.6640680844552,39.2829540529604,10,0,0,0
87400,51.6640613942229,39.2829637041435,10,0,0,0
87500,51.6640546919994,39.2829733337883,10,0,0,0
87600,51.6640479778116,39.2829829418562,10,0,0,0
87700,51.6640412516863,39.2829925283089,10,0,0,0
87800,51.6640345136505,39.2830020931081,10,0,0,0
87900,51.664027763731,39.2830116362153,10,0,0,0
88000,51.6640210019549,39.2830211575926,10,0,0,0
88100,51.6640142283493,39.2830306572017,10,0,0,0
88200,51.6640074429412,39.2830401350047,10,0,0,0
88300,51.6640006457578,39.2830495909638,10,0,0,0
88400,51.6639938368263,39.283059025041,10,0,0,0
88500,51.6639870161739,39.2830684371986,10,0,0,0
88600,51.6639801838279,39.283077827399,10,0,0,0
88700,51.6639733398157,39.2830871956047,10,0,0,0
88800,51.6639664841646,39.2830965417781,10,0,0,0
88900,51.6639596169021,39.2831058658819,10,0,0,0
89000,51.6639527380556,39.2831151678788,10,0,0,0
89100,51.6639458476526,39.2831244477316,10,0,0,0
89200,51.6639389457208,39.2831337054032,10,0,0,0
89300,51.6639320322877,39.2831429408565,10,0,0,0
89400,51.663925107381,39.2831521540546,10,0,0,0
89500,51.6639181710284,39.2831613449606,10,0,0,0
89600,51.6639112232577,39.2831705135378,10,0,0,0
89700,51.6639042640966,39.2831796597496,10,0,0,0
89800,51.6638972935729,39.2831887835593,10,0,0,0
89900,51.6638903117147,39.2831978849304,10,0,0,0
90000,51.6638833185497,39.2832069638266,10,0,0,0
90100,51.6638763141061,39.2832160202115,10,0,0,0
90200,51.6638692984118,39.2832250540489,10,0,0,0
90300,51.6638622714948,39.2832340653027,10,0,0,0
90400,51.6638552333833,39.2832430539368,10,0,0,0
90500,51.6638481841055,39.2832520199153,10,0,0,0
90600,51.6638411236895,39.2832609632024,10,0,0,0
90700,51.6638340521636,39.2832698837621,10,0,0,0
90800,51.6638269695561,39.283278781559,10,0,0,0
90900,51.6638198758953,39.2832876565574,10,0,0,0
91000,51.6638127712096,39.2832965087218,10,0,0,0
91100,51.6638056555274,39.2833053380167,10,0,0,0
91200,51.6637985288773,39.283314144407,10,0,0,0
91300,51.6637913912876,39.2833229278573,10,0,0,0
91400,51.663784242787,39.2833316883325,10,0,0,0
91500,51.6637770834041,39.2833404257976,10,0,0,0
91600,51.6637699131674,39.2833491402177,10,0,0,0
91700,51.6637627321058,39.2833578315579,10,0,0,0
91800,51.6637555402478,39.2833664997834,10,0,0,0
91900,51.6637483376224,39.2833751448595,10,0,0,0
92000,51.6637411242583,39.2833837667518,10,0,0,0
92100,51.6637339001843,39.2833923654256,10,0,0,0
92200,51.6637266654294,39.2834009408467,10,0,0,0
92300,51.6637194200225,39.2834094929807,10,0,0,0
92400,51.6637121639926,39.2834180217934,10,0,0,0
92500,51.6637048973687,39.2834265272507,10,0,0,0
92600,51.6636976201799,39.2834350093186,10,0,0,0
92700,51.6636903324553,39.2834434679632,10,0,0,0
92800,51.6636830342241,39.2834519031506,10,0,0,0
92900,51.6636757255155,39.2834603148471,10,0,0,0
93000,51.6636684063586,39.2834687030191,10,0,0,0
93100,51.6636610767828,39.283477067633,10,0,0,0
93200,51.6636537368175,39.2834854086554,10,0,0,0
93300,51.6636463864919,39.2834937260528,10,0,0,0
93400,51.6636390258355,39.2835020197921,10,0,0,0
93500,51.6636316548778,39.2835102898401,10,0,0,0
93600,51.6636242736481,39.2835185361637,10,0,0,0
93700,51.6636168821761,39.2835267587299,10,0,0,0
93800,51.6636094804913,39.2835349575058,10,0,0,0
93900,51.6636020686233,39.2835431324586,10,0,0,0
94000,51.6635946466019,39.2835512835558,10,0,0,0
94100,51.6635872144566,39.2835594107645,10,0,0,0
94200,51.6635797722172,39.2835675140525,10,0,0,0
94300,51.6635723199134,39.2835755933871,10,0,0,0
94400,51.6635648575752,39.2835836487362,10,0,0,0
94500,51.6635573852323,39.2835916800675,10,0,0,0
94600,51.6635499029147,39.2835996873489,10,0,0,0
94700,51.6635424106523,39.2836076705484,10,0,0,0
94800,51.663534908475,39.2836156296341,10,0,0,0
94900,51.6635273964128,39.283623564574,10,0,0,0
95000,51.6635198744959,39.2836314753366,10,0,0,0
95100,51.6635123427543,39.2836393618901,10,0,0,0
95200,51.6635048012182,39.283647224203,10,0,0,0
95300,51.6634972499176,39.2836550622438,10,0,0,0
95400,51.6634896888829,39.2836628759813,10,0,0,0
95500,51.6634821181443,39.2836706653842,10,0,0,0
95600,51.663474537732,39.2836784304213,10,0,0,0
95700,51.6634669476764,39.2836861710616,10,0,0,0
95800,51.6634593480078,39.2836938872741,10,0,0,0
95900,51.6634517387567,39.283701579028,10,0,0,0
96000,51.6634441199535,39.2837092462924,10,0,0,0
96100,51.6634364916287,39.2837168890368,10,0,0,0
96200,51.6634288538128,39.2837245072306,10,0,0,0
96300,51.6634212065363,39.2837321008433,10,0,0,0
96400,51.6634135498299,39.2837396698445,10,0,0,0
96500,51.6634058837241,39.283747214204,10,0,0,0
96600,51.6633982082497,39.2837547338917,10,0,0,0
96700,51.6633905234374,39.2837622288773,10,0,0,0
96800,51.6633828293178,39.283769699131,10,0,0,0
96900,51.6633751259219,39.2837771446229,10,0,0,0
97000,51.6633674132803,39.2837845653233,10,0,0,0
97100,51.663359691424,39.2837919612023,10,0,0,0
97200,51.6633519603838,39.2837993322306,10,0,0,0
97300,51.6633442201907,39.2838066783785,10,0,0,0
97400,51.6633364708756,39.2838139996167,10,0,0,0
97500,51.6633287124695,39.283821295916,10,0,0,0
97600,51.6633209450036,39.2838285672471,10,0,0,0
97700,51.6633131685088,39.2838358135811,10,0,0,0
97800,51.6633053830162,39.2838430348888,10,0,0,0
97900,51.6632975885571,39.2838502311415,10,0,0,0
98000,51.6632897851625,39.2838574023103,10,0,0,0
98100,51.6632819728638,39.2838645483666,10,0,0,0
98200,51.6632741516921,39.2838716692818,10,0,0,0
98300,51.6632663216788,39.2838787650274,10,0,0,0
98400,51.6632584828552,39.2838858355751,10,0,0,0
98500,51.6632506352526,39.2838928808966,10,0,0,0
98600,51.6632427789024,39.2838999009636,10,0,0,0
98700,51.6632349138361,39.2839068957482,10,0,0,0
98800,51.6632270400851,39.2839138652224,10,0,0,0
98900,51.6632191576809,39.2839208093583,10,0,0,0
99000,51.6632112666551,39.2839277281281,10,0,0,0
99100,51.6632033670392,39.2839346215042,10,0,0,0
99200,51.6631954588649,39.283941489459,10,0,0,0
99300,51.6631875421637,39.283948331965,10,0,0,0
99400,51.6631796169673,39.2839551489949,10,0,0,0
99500,51.6631716833076,39.2839619405214,10,0,0,0
99600,51.6631637412161,39.2839687065174,10,0,0,0
99700,51.6631557907246,39.2839754469558,10,0,0,0
99800,51.663147831865,39.2839821618096,10,0,0,0
99900,51.6631398646691,39.2839888510521,10,0,0,0
100000,51.6631318891688,39.2839955146564,10,0,0,0
100100,51.663123905396,39.2840021525959,10,0,0,0
100200,51.6631159133826,39.2840087648442,10,0,0,0
100300,51.6631079131606,39.2840153513746,10,0,0,0
100400,51.663099904762,39.2840219121609,10,0,0,0
100500,51.6630918882188,39.284028447177,10,0,0,0
100600,51.6630838635631,39.2840349563965,10,0,0,0
100700,51.6630758308271,39.2840414397935,10,0,0,0
100800,51.6630677900427,39.2840478973422,10,0,0,0
100900,51.6630597412423,39.2840543290166,10,0,0,0
101000,51.6630516844581,39.284060734791,10,0,0,0
101100,51.6630436197221,39.2840671146399,10,0,0,0
101200,51.6630355470668,39.2840734685378,10,0,0,0
101300,51.6630274665243,39.2840797964591,10,0,0,0
101400,51.6630193781271,39.2840860983787,10,0,0,0
101500,51.6630112819075,39.2840923742713,10,0,0,0
101600,51.6630031778978,39.2840986241118,10,0,0,0
101700,51.6629950661306,39.2841048478752,10,0,0,0
101800,51.6629869466382,39.2841110455368,10,0,0,0
101900,51.6629788194531,39.2841172170716,10,0,0,0
102000,51.6629706846079,39.284123362455,10,0,0,0
102100,51.662962542135,39.2841294816624,10,0,0,0
102200,51.6629543920671,39.2841355746695,10,0,0,0
102300,51.6629462344368,39.2841416414517,10,0,0,0
102400,51.6629380692766,39.2841476819849,10,0,0,0
102500,51.6629298966193,39.2841536962448,10,0,0,0
102600,51.6629217164976,39.2841596842076,10,0,0,0
102700,51.6629135289442,39.2841656458491,10,0,0,0
102800,51.6629053339918,39.2841715811456,10,0,0,0
102900,51.6628971316732,39.2841774900734,10,0,0,0
103000,51.6628889220212,39.2841833726088,10,0,0,0
103100,51.6628807050688,39.2841892287283,10,0,0,0
103200,51.6628724808486,39.2841950584085,10,0,0,0
103300,51.6628642493937,39.284200861626,10,0,0,0
103400,51.662856010737,39.2842066383578,10,0,0,0
103500,51.6628477649114,39.2842123885807,10,0,0,0
103600,51.66283951195,39.2842181122716,10,0,0,0
103700,51.6628312518856,39.2842238094078,10,0,0,0
103800,51.6628229847515,39.2842294799664,10,0,0,0
103900,51.6628147105806,39.2842351239248,10,0,0,0
104000,51.6628064294061,39.2842407412604,10,0,0,0
104100,51.662798141261,39.2842463319507,10,0,0,0
104200,51.6627898461786,39.2842518959734,10,0,0,0
104300,51.662781544192,39.2842574333063,10,0,0,0
104400,51.6627732353345,39.2842629439272,10,0,0,0
104500,51.6627649196392,39.2842684278141,10,0,0,0
104600,51.6627565971395,39.284273884945,10,0,0,0
104700,51.6627482678686,39.2842793152982,10,0,0,0
104800,51.6627399318599,39.284284718852,10,0,0,0
104900,51.6627315891466,39.2842900955846,10,0,0,0
105000,51.6627232397623,39.2842954454748,10,0,0,0
105100,51.6627148837402,39.2843007685009,10,0,0,0
105200,51.6627065211138,39.2843060646419,10,0,0,0
105300,51.6626981519166,39.2843113338764,10,0,0,0
105400,51.662689776182,39.2843165761835,10,0,0,0
105500,51.6626813939436,39.2843217915422,10,0,0,0
105600,51.6626730052349,39.2843269799316,10,0,0,0
105700,51.6626646100894,39.284332141331,10,0,0,0
105800,51.6626562085407,39.2843372757197,10,0,0,0
105900,51.6626478006224,39.2843423830773,10,0,0,0
106000,51.6626393863682,39.2843474633833,10,0,0,0
106100,51.6626309658118,39.2843525166174,10,0,0,0
106200,51.6626225389867,39.2843575427594,10,0,0,0
106300,51.6626141059268,39.2843625417893,10,0,0,0
106400,51.6626056666657,39.284367513687,10,0,0,0
106500,51.6625972212373,39.2843724584326,10,0,0,0
106600,51.6625887696752,39.2843773760064,10,0,0,0
106700,51.6625803120134,39.2843822663888,10,0,0,0
106800,51.6625718482856,39.2843871295602,10,0,0,0
106900,51.6625633785258,39.2843919655011,10,0,0,0
107000,51.6625549027677,39.2843967741922,10,0,0,0
107100,51.6625464210453,39.2844015556144,10,0,0,0
107200,51.6625379333925,39.2844063097484,10,0,0,0
107300,51.6625294398434,39.2844110365753,10,0,0,0
107400,51.6625209404317,39.2844157360762,10,0,0,0
107500,51.6625124351917,39.2844204082322,10,0,0,0
107600,51.6625039241572,39.2844250530249,10,0,0,0
107700,51.6624954073624,39.2844296704355,10,0,0,0
107800,51.6624868848412,39.2844342604456,10,0,0,0
107900,51.6624783566279,39.2844388230368,10,0,0,0
108000,51.6624698227564,39.284443358191,10,0,0,0
108100,51.662461283261,39.28444786589,10,0,0,0
108200,51.6624527381758,39.2844523461157,10,0,0,0
108300,51.662444187535,39.2844567988504,10,0,0,0
108400,51.6624356313729,39.2844612240761,10,0,0,0
108500,51.6624270697235,39.2844656217752,10,0,0,0
108600,51.6624185026212,39.2844699919301,10,0,0,0
108700,51.6624099301002,39.2844743345234,10,0,0,0
108800,51.6624013521949,39.2844786495376,10,0,0,0
108900,51.6623927689396,39.2844829369556,10,0,0,0
109000,51.6623841803685,39.2844871967602,10,0,0,0
109100,51.6623755865161,39.2844914289344,10,0,0,0
109200,51.6623669874167,39.2844956334613,10,0,0,0
109300,51.6623583831048,39.284499810324,10,0,0,0
109400,51.6623497736147,39.2845039595059,10,0,0,0
109500,51.6623411589809,39.2845080809904,10,0,0,0
109600,51.6623325392378,39.284512174761,10,0,0,0
109700,51.66232391442,39.2845162408014,10,0,0,0
109800,51.6623152845618,39.2845202790953,10,0,0,0
109900,51.662306649698,39.2845242896265,10,0,0,0
110000,51.6622980098629,39.2845282723791,10,0,0,0
110100,51.6622893650912,39.2845322273371,10,0,0,0
110200,51.6622807154175,39.2845361544847,10,0,0,0
110300,51.6622720608762,39.2845400538063,10,0,0,0
110400,51.6622634015022,39.2845439252862,10,0,0,0
110500,51.6622547373299,39.284547768909,10,0,0,0
110600,51.6622460683941,39.2845515846593,10,0,0,0
110700,51.6622373947295,39.2845553725218,10,0,0,0
110800,51.6622287163707,39.2845591324815,10,0,0,0
110900,51.6622200333524,39.2845628645233,10,0,0,0
111000,51.6622113457095,39.2845665686322,10,0,0,0
111100,51.6622026534765,39.2845702447936,10,0,0,0
111200,51.6621939566884,39.2845738929927,10,0,0,0
111300,51.6621852553799,39.2845775132148,10,0,0,0
111400,51.6621765495858,39.2845811054457,10,0,0,0
111500,51.662167839341,39.2845846696708,10,0,0,0
111600,51.6621591246802,39.284588205876,10,0,0,0
111700,51.6621504056384,39.2845917140471,10,0,0,0
111800,51.6621416822504,39.2845951941702,10,0,0,0
111900,51.6621329545511,39.2845986462312,10,0,0,0
112000,51.6621242225754,39.2846020702165,10,0,0,0
112100,51.6621154863583,39.2846054661122,10,0,0,0
112200,51.6621067459347,39.284608833905,10,0,0,0
112300,51.6620980013396,39.2846121735813,10,0,0,0
112400,51.6620892526079,39.2846154851277,10,0,0,0
112500,51.6620804997747,39.284618768531,10,0,0,0
112600,51.6620717428749,39.2846220237782,10,0,0,0
112700,51.6620629819437,39.2846252508562,10,0,0,0
112800,51.6620542170159,39.2846284497521,10,0,0,0
112900,51.6620454481268,39.2846316204531,10,0,0,0
113000,51.6620366753114,39.2846347629467,10,0,0,0
113100,51.6620278986047,39.2846378772201,10,0,0,0
113200,51.6620191180419,39.284640963261,10,0,0,0
113300,51.6620103336581,39.284644021057,10,0,0,0
113400,51.6620015454884,39.284647050596,10,0,0,0
113500,51.6619927535681,39.2846500518658,10,0,0,0
113600,51.6619839579322,39.2846530248545,10,0,0,0
113700,51.661975158616,39.2846559695501,10,0,0,0
113800,51.6619663556546,39.2846588859409,10,0,0,0
113900,51.6619575490833,39.2846617740152,10,0,0,0
114000,51.6619487389373,39.2846646337616,10,0,0,0
114100,51.6619399252519,39.2846674651685,10,0,0,0
114200,51.6619311080622,39.2846702682248,10,0,0,0
114300,51.6619222874036,39.2846730429191,10,0,0,0
114400,51.6619134633114,39.2846757892404,10,0,0,0
114500,51.6619046358208,39.2846785071778,10,0,0,0
114600,51.6618958049671,39.2846811967203,10,0,0,0
114700,51.6618869707858,39.2846838578572,10,0,0,0
114800,51.661878133312,39.284686490578,10,0,0,0
114900,51.6618692925813,39.284689094872,10,0,0,0
115000,51.6618604486289,39.284691670729,10,0,0,0
115100,51.6618516014902,39.2846942181385,10,0,0,0
115200,51.6618427512007,39.2846967370905,10,0,0,0
115300,51.6618338977956,39.2846992275748,10,0,0,0
115400,51.6618250413105,39.2847016895816,10,0,0,0
115500,51.6618161817807,39.2847041231009,10,0,0,0
115600,51.6618073192417,39.2847065281232,10,0,0,0
115700,51.661798453729,39.2847089046386,10,0,0,0
115800,51.661789585278,39.2847112526379,10,0,0,0
115900,51.6617807139241,39.2847135721116,10,0,0,0
116000,51.661771839703,39.2847158630504,10,0,0,0
116100,51.66176296265,39.2847181254452,10,0,0,0
116200,51.6617540828007,39.284720359287,10,0,0,0
116300,51.6617452001906,39.2847225645668,10,0,0,0
116400,51.6617363148553,39.2847247412758,10,0,0,0
116500,51.6617274268302,39.2847268894054,10,0,0,0
116600,51.6617185361509,39.284729008947,10,0,0,0
116700,51.6617096428531,39.284731099892,10,0,0,0
116800,51.6617007469722,39.2847331622323,10,0,0,0
116900,51.6616918485439,39.2847351959594,10,0,0,0
117000,51.6616829476037,39.2847372010654,10,0,0,0
117100,51.6616740441873,39.2847391775422,10,0,0,0
117200,51.6616651383303,39.2847411253819,10,0,0,0
117300,51.6616562300682,39.2847430445767,10,0,0,0
117400,51.6616473194368,39.284744935119,10,0,0,0
117500,51.6616384064716,39.2847467970013,10,0,0,0
117600,51.6616294912084,39.284748630216,10,0,0,0
117700,51.6616205736828,39.2847504347559,10,0,0,0
117800,51.6616116539304,39.2847522106139,10,0,0,0
117900,51.661602731987,39.2847539577827,10,0,0,0
118000,51.6615938078882,39.2847556762555,10,0,0,0
118100,51.6615848816698,39.2847573660253,10,0,0,0
118200,51.6615759533673,39.2847590270855,10,0,0,0
118300,51.6615670230167,39.2847606594293,10,0,0,0
118400,51.6615580906535,39.2847622630504,10,0,0,0
118500,51.6615491563135,39.2847638379422,10,0,0,0
118600,51.6615402200324,39.2847653840986,10,0,0,0
118700,51.661531281846,39.2847669015132,10,0,0,0
118800,51.6615223417901,39.2847683901802,10,0,0,0
118900,51.6615133999004,39.2847698500935,10,0,0,0
119000,51.6615044562126,39.2847712812474,10,0,0,0
119100,51.6614955107626,39.2847726836361,10,0,0,0
119200,51.6614865635861,39.2847740572539,10,0,0,0
119300,51.6614776147189,39.2847754020956,10,0,0,0
119400,51.6614686641969,39.2847767181556,10,0,0,0
119500,51.6614597120558,39.2847780054288,10,0,0,0
119600,51.6614507583313,39.28477926391,10,0,0,0
119700,51.6614418030595,39.2847804935941,10,0,0,0
119800,51.661432846276,39.2847816944764,10,0,0,0
119900,51.6614238880167,39.2847828665519,10,0,0,0
120000,51.6614149283174,39.2847840098161,10,0,0,0
120100,51.661405967214,39.2847851242643,10,0,0,0
120200,51.6613970047423,39.2847862098922,10,0,0,0
120300,51.6613880409382,39.2847872666954,10,0,0,0
120400,51.6613790758375,39.2847882946697,10,0,0,0
120500,51.6613701094761,39.284789293811,10,0,0,0
120600,51.6613611418898,39.2847902641153,10,0,0,0
120700,51.6613521731145,39.2847912055788,10,0,0,0
120800,51.6613432031861,39.2847921181977,10,0,0,0
120900,51.6613342321406,39.2847930019683,10,0,0,0
121000,51.6613252600136,39.2847938568872,10,0,0,0
121100,51.6613162868412,39.284794682951,10,0,0,0
121200,51.6613073126593,39.2847954801563,10,0,0,0
121300,51.6612983375037,39.2847962485001,10,0,0,0
121400,51.6612893614103,39.2847969879791,10,0,0,0
121500,51.6612803844151,39.2847976985906,10,0,0,0
121600,51.6612714065539,39.2847983803316,10,0,0,0
121700,51.6612624278627,39.2847990331995,10,0,0,0
121800,51.6612534483774,39.2847996571917,10,0,0,0
121900,51.6612444681339,39.2848002523057,10,0,0,0
122000,51.6612354871681,39.2848008185391,10,0,0,0
122100,51.6612265055159,39.2848013558896,10,0,0,0
122200,51.6612175232133,39.2848018643553,10,0,0,0
122300,51.6612085402962,39.2848023439339,10,0,0,0
122400,51.6611995568006,39.2848027946237,10,0,0,0
