Timestamp (ms),Latitude (deg),Longitude (deg),Altitude (m),Yaw (deg),Pitch (deg),Roll (deg)
0,51.66383056,39.27188611,10,0,0,0
100,51.6638383560004,39.2718788889838,10,0,0,0
200,51.6638461765782,39.2718716787247,10,0,0,0
300,51.6638540217559,39.2718644794024,10,0,0,0
400,51.6638618915554,39.2718572911976,10,0,0,0
500,51.6638697859985,39.2718501142912,10,0,0,0
600,51.6638777051065,39.2718429488648,10,0,0,0
700,51.6638856489006,39.2718357951004,10,0,0,0
800,51.6638936174015,39.2718286531808,10,0,0,0
900,51.6639016106298,39.271821523289,10,0,0,0
1000,51.6639096286055,39.2718144056089,10,0,0,0
1100,51.6639176713484,39.2718073003247,10,0,0,0
1200,51.6639257388782,39.2718002076212,10,0,0,0
1300,51.6639338312138,39.2717931276838,10,0,0,0
1400,51.6639419483742,39.2717860606983,10,0,0,0
1500,51.6639500903778,39.2717790068513,10,0,0,0
1600,51.6639582572428,39.2717719663297,10,0,0,0
1700,51.6639664489871,39.2717649393211,10,0,0,0
1800,51.663974665628,39.2717579260134,10,0,0,0
1900,51.6639829071827,39.2717509265953,10,0,0,0
2000,51.6639911736681,39.2717439412559,10,0,0,0
2100,51.6639994651005,39.2717369701849,10,0,0,0
2200,51.664007781496,39.2717300135725,10,0,0,0
2300,51.6640161228704,39.2717230716095,10,0,0,0
2400,51.664024489239,39.2717161444871,10,0,0,0
2500,51.6640328806168,39.2717092323971,10,0,0,0
2600,51.6640412970185,39.2717023355319,10,0,0,0
2700,51.6640497384584,39.2716954540843,10,0,0,0
2800,51.6640582049504,39.2716885882478,10,0,0,0
2900,51.664066696508,39.2716817382163,10,0,0,0
3000,51.6640752131444,39.2716749041843,10,0,0,0
3100,51.6640837548724,39.2716680863467,10,0,0,0
3200,51.6640923217044,39.2716612848991,10,0,0,0
3300,51.6641009136525,39.2716545000375,10,0,0,0
3400,51.6641095307282,39.2716477319585,10,0,0,0
3500,51.664118172943,39.2716409808593,10,0,0,0
3600,51.6641268403076,39.2716342469373,10,0,0,0
3700,51.6641355328326,39.2716275303908,10,0,0,0
3800,51.664144250528,39.2716208314185,10,0,0,0
3900,51.6641529934035,39.2716141502194,10,0,0,0
4000,51.6641617614685,39.2716074869934,10,0,0,0
4100,51.6641705547317,39.2716008419406,10,0,0,0
4200,51.6641793732018,39.2715942152618,10,0,0,0
4300,51.6641882168868,39.2715876071582,10,0,0,0
4400,51.6641970857944,39.2715810178316,10,0,0,0
4500,51.6642059799318,39.2715744474843,10,0,0,0
4600,51.6642148993058,39.2715678963191,10,0,0,0
4700,51.664223843923,39.2715613645392,10,0,0,0
4800,51.6642328137892,39.2715548523485,10,0,0,0
4900,51.6642418089102,39.2715483599514,10,0,0,0
5000,51.6642508292909,39.2715418875525,10,0,0,0
5100,51.6642598749362,39.2715354353574,10,0,0,0
5200,51.6642689458504,39.2715290035717,10,0,0,0
5300,51.6642780420373,39.2715225924019,10,0,0,0
5400,51.6642871635003,39.2715162020547,10,0,0,0
5500,51.6642963102424,39.2715098327376,10,0,0,0
5600,51.6643054822662,39.2715034846583,10,0,0,0
5700,51.6643146795737,39.2714971580252,10,0,0,0
5800,51.6643239021665,39.2714908530472,10,0,0,0
5900,51.6643331500459,39.2714845699334,10,0,0,0
6000,51.6643424232127,39.2714783088938,10,0,0,0
6100,51.664351721667,39.2714720701386,10,0,0,0
6200,51.6643610454087,39.2714658538787,10,0,0,0
6300,51.6643703944372,39.2714596603252,10,0,0,0
6400,51.6643797687513,39.2714534896901,10,0,0,0
6500,51.6643891683495,39.2714473421854,10,0,0,0
6600,51.6643985932298,39.271441218024,10,0,0,0
6700,51.6644080433895,39.2714351174191,10,0,0,0
6800,51.6644175188258,39.2714290405842,10,0,0,0
6900,51.6644270195352,39.2714229877337,10,0,0,0
7000,51.6644365455136,39.2714169590821,10,0,0,0
7100,51.6644460967567,39.2714109548445,10,0,0,0
7200,51.6644556732594,39.2714049752366,10,0,0,0
7300,51.6644652750165,39.2713990204743,10,0,0,0
7400,51.664474902022,39.2713930907742,10,0,0,0
7500,51.6644845542695,39.2713871863532,10,0,0,0
7600,51.6644942317521,39.2713813074289,10,0,0,0
7700,51.6645039344623,39.271375454219,10,0,0,0
7800,51.6645136623922,39.271369626942,10,0,0,0
7900,51.6645234155335,39.2713638258166,10,0,0,0
8000,51.6645331938773,39.2713580510622,10,0,0,0
8100,51.6645429974139,39.2713523028985,10,0,0,0
8200,51.6645528261336,39.2713465815456,10,0,0,0
8300,51.6645626800258,39.2713408872242,10,0,0,0
8400,51.6645725590795,39.2713352201553,10,0,0,0
8500,51.6645824632832,39.2713295805605,10,0,0,0
8600,51.6645923926249,39.2713239686616,10,0,0,0
8700,51.664602347092,39.2713183846812,10,0,0,0
8800,51.6646123266714,39.2713128288419,10,0,0,0
8900,51.6646223313493,39.2713073013672,10,0,0,0
9000,51.6646323611117,39.2713018024806,10,0,0,0
9100,51.6646424159438,39.2712963324063,10,0,0,0
9200,51.6646524958303,39.2712908913689,10,0,0,0
9300,51.6646626007554,39.2712854795933,10,0,0,0
9400,51.6646727307027,39.2712800973049,10,0,0,0
9500,51.6646828856554,39.2712747447296,10,0,0,0
9600,51.6646930655959,39.2712694220936,10,0,0,0
9700,51.6647032705062,39.2712641296235,10,0,0,0
9800,51.6647135003677,39.2712588675464,10,0,0,0
9900,51.6647237551613,39.2712536360897,10,0,0,0
10000,51.6647340348671,39.2712484354814,10,0,0,0
10100,51.664744339465,39.2712432659497,10,0,0,0
10200,51.664754668934,39.2712381277233,10,0,0,0
10300,51.6647650232527,39.2712330210313,10,0,0,0
10400,51.6647754023991,39.2712279461032,10,0,0,0
10500,51.6647858063505,39.2712229031688,10,0,0,0
10600,51.6647962350838,39.2712178924584,10,0,0,0
10700,51.6648066885752,39.2712129142026,10,0,0,0
10800,51.6648171668003,39.2712079686325,10,0,0,0
10900,51.6648276697341,39.2712030559795,10,0,0,0
11000,51.6648381973511,39.2711981764753,10,0,0,0
11100,51.6648487496251,39.2711933303522,10,0,0,0
11200,51.6648593265295,39.2711885178427,10,0,0,0
11300,51.6648699280367,39.2711837391796,10,0,0,0
11400,51.6648805541189,39.2711789945963,10,0,0,0
11500,51.6648912047474,39.2711742843264,10,0,0,0
11600,51.6649018798931,39.2711696086039,10,0,0,0
11700,51.6649125795261,39.2711649676632,10,0,0,0
11800,51.6649233036161,39.2711603617389,10,0,0,0
11900,51.6649340521319,39.2711557910661,10,0,0,0
12000,51.6649448250419,39.2711512558802,10,0,0,0
12100,51.6649556223138,39.2711467564169,10,0,0,0
12200,51.6649664439147,39.2711422929125,10,0,0,0
12300,51.6649772898109,39.2711378656031,10,0,0,0
12400,51.6649881599683,39.2711334747258,10,0,0,0
12500,51.6649990543521,39.2711291205174,10,0,0,0
12600,51.6650099729267,39.2711248032155,10,0,0,0
12700,51.6650209156561,39.2711205230577,10,0,0,0
12800,51.6650318825034,39.2711162802822,10,0,0,0
12900,51.6650428734312,39.2711120751273,10,0,0,0
13000,51.6650538884015,39.2711079078317,10,0,0,0
13100,51.6650649273754,39.2711037786344,10,0,0,0
13200,51.6650759903137,39.2710996877747,10,0,0,0
13300,51.6650870771763,39.2710956354921,10,0,0,0
13400,51.6650981879223,39.2710916220267,10,0,0,0
13500,51.6651093225105,39.2710876476186,10,0,0,0
13600,51.6651204808988,39.2710837125082,10,0,0,0
13700,51.6651316630444,39.2710798169364,10,0,0,0
13800,51.665142868904,39.2710759611441,10,0,0,0
13900,51.6651540984334,39.2710721453729,10,0,0,0
14000,51.6651653515879,39.2710683698641,10,0,0,0
14100,51.665176628322,39.2710646348598,10,0,0,0
14200,51.6651879285895,39.271060940602,10,0,0,0
14300,51.6651992523437,39.2710572873332,10,0,0,0
14400,51.6652105995371,39.271053675296,10,0,0,0
14500,51.6652219701213,39.2710501047334,10,0,0,0
14600,51.6652333640475,39.2710465758886,10,0,0,0
14700,51.665244781266,39.2710430890049,10,0,0,0
14800,51.6652562217265,39.271039644326,10,0,0,0
14900,51.6652676853781,39.2710362420958,10,0,0,0
15000,51.6652791721689,39.2710328825584,10,0,0,0
15100,51.6652906820464,39.2710295659583,10,0,0,0
15200,51.6653022149576,39.2710262925399,10,0,0,0
15300,51.6653137708484,39.2710230625481,10,0,0,0
15400,51.6653253496644,39.271019876228,10,0,0,0
15500,51.6653369513501,39.2710167338247,10,0,0,0
15600,51.6653485758496,39.2710136355837,10,0,0,0
15700,51.6653602231059,39.2710105817506,10,0,0,0
15800,51.6653718930616,39.2710075725714,10,0,0,0
15900,51.6653835856584,39.2710046082919,10,0,0,0
16000,51.6653953008374,39.2710016891585,10,0,0,0
16100,51.6654070385387,39.2709988154176,10,0,0,0
16200,51.6654187987019,39.2709959873157,10,0,0,0
16300,51.6654305812659,39.2709932050997,10,0,0,0
16400,51.6654423861684,39.2709904690164,10,0,0,0
16500,51.665454213347,39.270987779313,10,0,0,0
16600,51.665466062738,39.2709851362367,10,0,0,0
16700,51.6654779342772,39.2709825400349,10,0,0,0
16800,51.6654898278997,39.2709799909552,10,0,0,0
16900,51.6655017435396,39.2709774892454,10,0,0,0
17000,51.6655136811305,39.2709750351533,10,0,0,0
17100,51.665525640605,39.2709726289268,10,0,0,0
17200,51.6655376218951,39.2709702708141,10,0,0,0
17300,51.6655496249319,39.2709679610635,10,0,0,0
17400,51.6655616496459,39.2709656999233,10,0,0,0
17500,51.6655736959665,39.270963487642,10,0,0,0
17600,51.6655857638227,39.2709613244682,10,0,0,0
17700,51.6655978531425,39.2709592106506,10,0,0,0
17800,51.6656099638531,39.2709571464381,10,0,0,0
17900,51.6656220958811,39.2709551320794,10,0,0,0
18000,51.665634249152,39.2709531678236,10,0,0,0
18100,51.6656464235907,39.2709512539198,10,0,0,0
18200,51.6656586191214,39.2709493906171,10,0,0,0
18300,51.6656708356673,39.2709475781647,10,0,0,0
18400,51.6656830731508,39.2709458168119,10,0,0,0
18500,51.6656953314938,39.2709441068081,10,0,0,0
18600,51.6657076106169,39.2709424484027,10,0,0,0
18700,51.6657199104404,39.2709408418451,10,0,0,0
18800,51.6657322308833,39.2709392873849,10,0,0,0
18900,51.6657445718643,39.2709377852715,10,0,0,0
19000,51.6657569333008,39.2709363357546,10,0,0,0
19100,51.6657693151096,39.2709349390838,10,0,0,0
19200,51.6657817172068,39.2709335955086,10,0,0,0
19300,51.6657941395074,39.2709323052788,10,0,0,0
19400,51.6658065819259,39.270931068644,10,0,0,0
19500,51.6658190443755,39.2709298858539,10,0,0,0
19600,51.6658315267691,39.2709287571581,10,0,0,0
19700,51.6658440290185,39.2709276828062,10,0,0,0
19800,51.6658565510345,39.2709266630479,10,0,0,0
19900,51.6658690927274,39.2709256981329,10,0,0,0
20000,51.6658816540064,39.2709247883107,10,0,0,0
20100,51.66589423478,39.2709239338309,10,0,0,0
20200,51.6659068349558,39.270923134943,10,0,0,0
20300,51.6659194544406,39.2709223918964,10,0,0,0
20400,51.6659320931402,39.2709217049407,10,0,0,0
20500,51.6659447509597,39.2709210743253,10,0,0,0
20600,51.6659574278033,39.2709205002993,10,0,0,0
20700,51.6659701235744,39.270919983112,10,0,0,0
20800,51.6659828381752,39.2709195230128,10,0,0,0
20900,51.6659955715076,39.2709191202505,10,0,0,0
21000,51.6660083234722,39.2709187750742,10,0,0,0
21100,51.666021093969,39.2709184877329,10,0,0,0
21200,51.6660338828967,39.2709182584752,10,0,0,0
21300,51.6660466901537,39.27091808755,10,0,0,0
21400,51.6660595156372,39.2709179752058,10,0,0,0
21500,51.6660723592435,39.2709179216911,10,0,0,0
21600,51.6660852208681,39.2709179272541,10,0,0,0
21700,51.6660981004057,39.2709179921432,10,0,0,0
21800,51.6661109977499,39.2709181166062,10,0,0,0
21900,51.6661239127936,39.2709183008913,10,0,0,0
22000,51.6661368454288,39.270918545246,10,0,0,0
22100,51.6661497955464,39.270918849918,10,0,0,0
22200,51.6661627630367,39.2709192151548,10,0,0,0
22300,51.6661757477889,39.2709196412035,10,0,0,0
22400,51.6661887496914,39.2709201283112,10,0,0,0
22500,51.6662017686317,39.2709206767249,10,0,0,0
22600,51.6662148044963,39.2709212866911,10,0,0,0
22700,51.6662278571709,39.2709219584564,10,0,0,0
22800,51.6662409265403,39.270922692267,10,0,0,0
22900,51.6662540124882,39.2709234883689,10,0,0,0
23000,51.6662671148978,39.270924347008,10,0,0,0
23100,51.6662802336508,39.2709252684299,10,0,0,0
23200,51.6662933686286,39.2709262528799,10,0,0,0
23300,51.6663065197113,39.2709273006031,10,0,0,0
23400,51.6663196867781,39.2709284118443,10,0,0,0
23500,51.6663328697074,39.2709295868481,10,0,0,0
23600,51.6663460683767,39.2709308258589,10,0,0,0
23700,51.6663592826625,39.2709321291206,10,0,0,0
23800,51.6663725124403,39.270933496877,10,0,0,0
23900,51.6663857575848,39.2709349293716,10,0,0,0
24000,51.6663990179698,39.2709364268475,10,0,0,0
24100,51.6664122934681,39.2709379895475,10,0,0,0
24200,51.6664255839514,39.2709396177142,10,0,0,0
24300,51.6664388892908,39.2709413115899,10,0,0,0
24400,51.6664522093561,39.2709430714162,10,0,0,0
24500,51.6664655440166,39.2709448974349,10,0,0,0
24600,51.6664788931403,39.2709467898871,10,0,0,0
24700,51.6664922565943,39.2709487490136,10,0,0,0
24800,51.6665056342449,39.270950775055,10,0,0,0
24900,51.6665190259574,39.2709528682512,10,0,0,0
25000,51.6665324315961,39.270955028842,10,0,0,0
25100,51.6665458510244,39.2709572570668,10,0,0,0
25200,51.6665592841047,39.2709595531645,10,0,0,0
25300,51.6665727306985,39.2709619173736,10,0,0,0
25400,51.6665861906663,39.2709643499323,10,0,0,0
25500,51.6665996638677,39.2709668510783,10,0,0,0
25600,51.6666131501613,39.2709694210488,10,0,0,0
25700,51.6666266494048,39.2709720600807,10,0,0,0
25800,51.6666401614548,39.2709747684104,10,0,0,0
25900,51.6666536861671,39.2709775462738,10,0,0,0
26000,51.6666672233965,39.2709803939065,10,0,0,0
26100,51.6666807729967,39.2709833115434,10,0,0,0
26200,51.6666943348207,39.270986299419,10,0,0,0
26300,51.6667079087202,39.2709893577675,10,0,0,0
26400,51.6667214945461,39.2709924868224,10,0,0,0
26500,51.6667350921485,39.2709956868167,10,0,0,0
26600,51.6667487013763,39.2709989579831,10,0,0,0
26700,51.6667623220774,39.2710023005534,10,0,0,0
26800,51.6667759540988,39.2710057147591,10,0,0,0
26900,51.6667895972866,39.2710092008314,10,0,0,0
27000,51.6668032514859,39.2710127590005,10,0,0,0
27100,51.6668169165407,39.2710163894962,10,0,0,0
27200,51.6668305922942,39.271020092548,10,0,0,0
27300,51.6668442785884,39.2710238683844,10,0,0,0
27400,51.6668579752645,39.2710277172337,10,0,0,0
27500,51.6668716821627,39.2710316393233,10,0,0,0
27600,51.666885399122,39.2710356348801,10,0,0,0
27700,51.6668991259808,39.2710397041306,10,0,0,0
27800,51.6669128625762,39.2710438473004,10,0,0,0
27900,51.6669266087445,39.2710480646146,10,0,0,0
28000,51.6669403643207,39.2710523562977,10,0,0,0
28100,51.6669541291393,39.2710567225734,10,0,0,0
28200,51.6669679030334,39.2710611636648,10,0,0,0
28300,51.6669816858353,39.2710656797945,10,0,0,0
28400,51.6669954773762,39.2710702711842,10,0,0,0
28500,51.6670092774864,39.2710749380551,10,0,0,0
28600,51.6670230859953,39.2710796806276,10,0,0,0
28700,51.667036902731,39.2710844991214,10,0,0,0
28800,51.6670507275209,39.2710893937556,10,0,0,0
28900,51.6670645601912,39.2710943647483,10,0,0,0
29000,51.6670784005673,39.2710994123172,10,0,0,0
29100,51.6670922484735,39.2711045366791,10,0,0,0
29200,51.6671061037329,39.2711097380501,10,0,0,0
29300,51.667119966168,39.2711150166454,10,0,0,0
29400,51.6671338356,39.2711203726797,10,0,0,0
29500,51.6671477118493,39.2711258063666,10,0,0,0
29600,51.6671615947351,39.2711313179191,10,0,0,0
29700,51.6671754840757,39.2711369075495,10,0,0,0
29800,51.6671893796884,39.2711425754691,10,0,0,0
29900,51.6672032813895,39.2711483218884,10,0,0,0
30000,51.6672171889944,39.2711541470172,10,0,0,0
30100,51.6672311023172,39.2711600510643,10,0,0,0
30200,51.6672450211713,39.2711660342377,10,0,0,0
30300,51.6672589453689,39.2711720967448,10,0,0,0
30400,51.6672728747213,39.2711782387917,10,0,0,0
30500,51.6672868090388,39.2711844605839,10,0,0,0
30600,51.6673007481307,39.2711907623259,10,0,0,0
30700,51.6673146918051,39.2711971442215,10,0,0,0
30800,51.6673286398694,39.2712036064732,10,0,0,0
30900,51.6673425921298,39.2712101492831,10,0,0,0
31000,51.6673565483916,39.2712167728518,10,0,0,0
31100,51.6673705084589,39.2712234773795,10,0,0,0
31200,51.667384472135,39.2712302630651,10,0,0,0
31300,51.6673984392222,39.2712371301066,10,0,0,0
31400,51.6674124095216,39.2712440787011,10,0,0,0
31500,51.6674263828334,39.2712511090448,10,0,0,0
31600,51.6674403589569,39.2712582213327,10,0,0,0
31700,51.6674543376902,39.2712654157589,10,0,0,0
31800,51.6674683188306,39.2712726925165,10,0,0,0
31900,51.6674823021743,39.2712800517977,10,0,0,0
32000,51.6674962875163,39.2712874937933,10,0,0,0
32100,51.667510274651,39.2712950186935,10,0,0,0
32200,51.6675242633714,39.2713026266872,10,0,0,0
32300,51.6675382534697,39.2713103179623,10,0,0,0
32400,51.6675522447371,39.2713180927055,10,0,0,0
32500,51.6675662369638,39.2713259511025,10,0,0,0
32600,51.6675802299388,39.2713338933381,10,0,0,0
32700,51.6675942234504,39.2713419195957,10,0,0,0
32800,51.6676082172858,39.2713500300577,10,0,0,0
32900,51.6676222112309,39.2713582249054,10,0,0,0
33000,51.667636205071,39.2713665043189,10,0,0,0
33100,51.6676501985903,39.2713748684772,10,0,0,0
33200,51.6676641915718,39.271383317558,10,0,0,0
33300,51.6676781837978,39.2713918517382,10,0,0,0
33400,51.6676921750492,39.2714004711931,10,0,0,0
33500,51.6677061651064,39.2714091760969,10,0,0,0
33600,51.6677201537484,39.2714179666228,10,0,0,0
33700,51.6677341407534,39.2714268429426,10,0,0,0
33800,51.6677481258985,39.2714358052269,10,0,0,0
33900,51.6677621089599,39.2714448536451,10,0,0,0
34000,51.6677760897128,39.2714539883654,10,0,0,0
34100,51.6677900679313,39.2714632095545,10,0,0,0
34200,51.6678040433886,39.2714725173782,10,0,0,0
34300,51.6678180158568,39.2714819120006,10,0,0,0
34400,51.6678319851073,39.271491393585,10,0,0,0
34500,51.6678459509101,39.2715009622928,10,0,0,0
34600,51.6678599130345,39.2715106182847,10,0,0,0
34700,51.6678738712487,39.2715203617196,10,0,0,0
34800,51.66788782532,39.2715301927552,10,0,0,0
34900,51.6679017750146,39.271540111548,10,0,0,0
35000,51.6679157200979,39.271550118253,10,0,0,0
35100,51.6679296603339,39.2715602130238,10,0,0,0
35200,51.6679435954863,39.2715703960127,10,0,0,0
35300,51.6679575253171,39.2715806673706,10,0,0,0
35400,51.6679714495878,39.2715910272468,10,0,0,0
35500,51.6679853680588,39.2716014757895,10,0,0,0
35600,51.6679992804895,39.2716120131453,10,0,0,0
35700,51.6680131866383,39.2716226394593,10,0,0,0
35800,51.6680270862626,39.2716333548752,10,0,0,0
35900,51.668040979119,39.2716441595353,10,0,0,0
36000,51.668054864963,39.2716550535803,10,0,0,0
36100,51.6680687435491,39.2716660371496,10,0,0,0
36200,51.668082614631,39.2716771103809,10,0,0,0
36300,51.6680964779612,39.2716882734104,10,0,0,0
36400,51.6681103332914,39.2716995263729,10,0,0,0
36500,51.6681241803724,39.2717108694017,10,0,0,0
36600,51.6681380189539,39.2717223026284,10,0,0,0
36700,51.6681518487846,39.271733826183,10,0,0,0
36800,51.6681656696125,39.2717454401942,10,0,0,0
36900,51.6681794811844,39.2717571447888,10,0,0,0
37000,51.6681932832464,39.2717689400922,10,0,0,0
37100,51.6682070755433,39.2717808262282,10,0,0,0
37200,51.6682208578192,39.2717928033189,10,0,0,0
37300,51.6682346298173,39.2718048714848,10,0,0,0
37400,51.6682483912797,39.2718170308446,10,0,0,0
37500,51.6682621419477,39.2718292815158,10,0,0,0
37600,51.6682758815616,39.2718416236137,10,0,0,0
37700,51.6682896098607,39.2718540572522,10,0,0,0
37800,51.6683033265835,39.2718665825436,10,0,0,0
37900,51.6683170314676,39.2718791995982,10,0,0,0
38000,51.6683307242494,39.2718919085248,10,0,0,0
38100,51.6683444046647,39.2719047094305,10,0,0,0
38200,51.6683580724483,39.2719176024205,10,0,0,0
38300,51.6683717273339,39.2719305875985,10,0,0,0
38400,51.6683853690545,39.271943665066,10,0,0,0
38500,51.6683989973422,39.2719568349232,10,0,0,0
38600,51.6684126119279,39.2719700972684,10,0,0,0
38700,51.668426212542,39.2719834521978,10,0,0,0
38800,51.6684397989137,39.2719968998061,10,0,0,0
38900,51.6684533707714,39.2720104401861,10,0,0,0
39000,51.6684669278426,39.2720240734288,10,0,0,0
39100,51.668480469854,39.2720377996233,10,0,0,0
39200,51.6684939965312,39.2720516188567,10,0,0,0
39300,51.6685075075992,39.2720655312146,10,0,0,0
39400,51.6685210027818,39.2720795367803,10,0,0,0
39500,51.6685344818022,39.2720936356355,10,0,0,0
39600,51.6685479443826,39.2721078278599,10,0,0,0
39700,51.6685613902442,39.2721221135313,10,0,0,0
39800,51.6685748191075,39.2721364927255,10,0,0,0
39900,51.6685882306923,39.2721509655163,10,0,0,0
40000,51.6686016247171,39.2721655319758,10,0,0,0
40100,51.6686150008998,39.2721801921739,10,0,0,0
40200,51.6686283589576,39.2721949461786,10,0,0,0
40300,51.6686416986065,39.272209794056,10,0,0,0
40400,51.6686550195619,39.2722247358699,10,0,0,0
40500,51.6686683215384,39.2722397716824,10,0,0,0
40600,51.6686816042494,39.2722549015535,10,0,0,0
40700,51.6686948674079,39.272270125541,10,0,0,0
40800,51.6687081107258,39.2722854437008,10,0,0,0
40900,51.6687213339143,39.2723008560867,10,0,0,0
41000,51.6687345366837,39.2723163627504,10,0,0,0
41100,51.6687477187436,39.2723319637415,10,0,0,0
41200,51.6687608798026,39.2723476591075,10,0,0,0
41300,51.6687740195686,39.2723634488939,10,0,0,0
41400,51.6687871377488,39.2723793331439,10,0,0,0
41500,51.6688002340493,39.2723953118987,10,0,0,0
41600,51.6688133081758,39.2724113851972,10,0,0,0
41700,51.6688263598329,39.2724275530762,10,0,0,0
41800,51.6688393887244,39.2724438155705,10,0,0,0
41900,51.6688523945537,39.2724601727124,10,0,0,0
42000,51.6688653770229,39.2724766245322,10,0,0,0
42100,51.6688783358337,39.2724931710579,10,0,0,0
42200,51.6688912706868,39.2725098123154,10,0,0,0
42300,51.6689041812824,39.2725265483282,10,0,0,0
42400,51.6689170673197,39.2725433791177,10,0,0,0
42500,51.6689299284973,39.272560304703,10,0,0,0
42600,51.6689427645129,39.2725773251007,10,0,0,0
42700,51.6689555750636,39.2725944403255,10,0,0,0
42800,51.6689683598456,39.2726116503895,10,0,0,0
42900,51.6689811185547,39.2726289553026,10,0,0,0
43000,51.6689938508855,39.2726463550724,10,0,0,0
43100,51.6690065565322,39.2726638497041,10,0,0,0
43200,51.6690192351883,39.2726814392007,10,0,0,0
43300,51.6690318865463,39.2726991235626,10,0,0,0
43400,51.6690445102984,39.272716902788,10,0,0,0
43500,51.6690571061357,39.2727347768728,10,0,0,0
43600,51.6690696737489,39.2727527458101,10,0,0,0
43700,51.6690822128279,39.2727708095911,10,0,0,0
43800,51.6690947230619,39.2727889682042,10,0,0,0
43900,51.6691072041394,39.2728072216357,10,0,0,0
44000,51.6691196557482,39.2728255698691,10,0,0,0
44100,51.6691320775757,39.2728440128857,10,0,0,0
44200,51.6691444693083,39.2728625506642,10,0,0,0
44300,51.6691568306319,39.2728811831808,10,0,0,0
44400,51.6691691612317,39.2728999104095,10,0,0,0
44500,51.6691814607924,39.2729187323213,10,0,0,0
44600,51.6691937289978,39.2729376488851,10,0,0,0
44700,51.6692059655314,39.2729566600671,10,0,0,0
44800,51.6692181700757,39.272975765831,10,0,0,0
44900,51.669230342313,39.2729949661379,10,0,0,0
45000,51.6692424819247,39.2730142609463,10,0,0,0
45100,51.6692545885916,39.2730336502123,10,0,0,0
45200,51.669266661994,39.2730531338893,10,0,0,0
45300,51.6692787018116,39.273072711928,10,0,0,0
45400,51.6692907077236,39.2730923842766,10,0,0,0
45500,51.6693026794084,39.2731121508807,10,0,0,0
45600,51.6693146165439,39.2731320116832,10,0,0,0
45700,51.6693265188076,39.2731519666244,10,0,0,0
45800,51.6693383858763,39.2731720156419,10,0,0,0
45900,51.6693502174262,39.2731921586706,10,0,0,0
46000,51.6693620131331,39.2732123956429,10,0,0,0
46100,51.6693737726723,39.2732327264883,10,0,0,0
46200,51.6693854957182,39.2732531511336,10,0,0,0
46300,51.6693971819452,39.273273669503,10,0,0,0
46400,51.6694088310268,39.2732942815179,10,0,0,0
46500,51.6694204426362,39.273314987097,10,0,0,0
46600,51.6694320164459,39.2733357861562,10,0,0,0
46700,51.6694435521282,39.2733566786086,10,0,0,0
46800,51.6694550493546,39.2733776643648,10,0,0,0
46900,51.6694665077963,39.2733987433321,10,0,0,0
47000,51.6694779271241,39.2734199154155,10,0,0,0
47100,51.6694893070081,39.2734411805169,10,0,0,0
47200,51.6695006471182,39.2734625385355,10,0,0,0
47300,51.6695119471237,39.2734839893677,10,0,0,0
47400,51.6695232066935,39.2735055329068,10,0,0,0
47500,51.669534425496,39.2735271690436,10,0,0,0
47600,51.6695456031994,39.2735488976658,10,0,0,0
47700,51.6695567394711,39.2735707186584,10,0,0,0
47800,51.6695678339785,39.2735926319032,10,0,0,0
47900,51.6695788863884,39.2736146372795,10,0,0,0
48000,51.6695898963672,39.2736367346633,10,0,0,0
48100,51.669600863581,39.2736589239281,10,0,0,0
48200,51.6696117876955,39.2736812049441,10,0,0,0
48300,51.6696226683759,39.2737035775786,10,0,0,0
48400,51.6696335052873,39.2737260416963,10,0,0,0
48500,51.6696442980942,39.2737485971585,10,0,0,0
48600,51.6696550464609,39.2737712438237,10,0,0,0
48700,51.6696657500515,39.2737939815474,10,0,0,0
48800,51.6696764085294,39.2738168101822,10,0,0,0
48900,51.669687021558,39.2738397295776,10,0,0,0
49000,51.6696975888003,39.27386273958,10,0,0,0
49100,51.669708109919,39.2738858400329,10,0,0,0
49200,51.6697185845766,39.2739090307767,10,0,0,0
49300,51.6697290124352,39.2739323116488,10,0,0,0
49400,51.6697393931567,39.2739556824835,10,0,0,0
49500,51.6697497264026,39.2739791431121,10,0,0,0
49600,51.6697600118345,39.2740026933626,10,0,0,0
49700,51.6697702491133,39.2740263330602,10,0,0,0
49800,51.6697804379001,39.2740500620268,10,0,0,0
49900,51.6697905778555,39.2740738800812,10,0,0,0
50000,51.66980066864,39.2740977870392,10,0,0,0
50100,51.6698107099138,39.2741217827134,10,0,0,0
50200,51.669820701337,39.2741458669131,10,0,0,0
50300,51.6698306425696,39.2741700394448,10,0,0,0
50400,51.6698405332712,39.2741943001116,10,0,0,0
50500,51.6698503731015,39.2742186487133,10,0,0,0
50600,51.6698601617197,39.2742430850468,10,0,0,0
50700,51.6698698987853,39.2742676089057,10,0,0,0
50800,51.6698795839572,39.2742922200803,10,0,0,0
50900,51.6698892168947,39.2743169183579,10,0,0,0
51000,51.6698987972564,39.2743417035224,10,0,0,0
51100,51.6699083247013,39.2743665753545,10,0,0,0
51200,51.669917798888,39.2743915336317,10,0,0,0
51300,51.6699272194752,39.2744165781282,10,0,0,0
51400,51.6699365861214,39.274441708615,10,0,0,0
51500,51.6699458984851,39.2744669248598,10,0,0,0
51600,51.6699551562248,39.2744922266271,10,0,0,0
51700,51.6699643589988,39.274517613678,10,0,0,0
51800,51.6699735064655,39.2745430857703,10,0,0,0
51900,51.6699825982834,39.2745686426587,10,0,0,0
52000,51.6699916341107,39.2745942840943,10,0,0,0
52100,51.6700006136057,39.274620009825,10,0,0,0
52200,51.670009536427,39.2746458195955,10,0,0,0
52300,51.6700184022328,39.274671713147,10,0,0,0
52400,51.6700272106815,39.2746976902174,10,0,0,0
52500,51.6700359614318,39.2747237505413,10,0,0,0
52600,51.6700446541421,39.2747498938497,10,0,0,0
52700,51.6700532884709,39.2747761198706,10,0,0,0
52800,51.6700618640771,39.2748024283283,10,0,0,0
52900,51.6700703806194,39.2748288189439,10,0,0,0
53000,51.6700788377566,39.2748552914351,10,0,0,0
53100,51.6700872351479,39.274881845516,10,0,0,0
53200,51.6700955724522,39.2749084808976,10,0,0,0
53300,51.670103849329,39.2749351972871,10,0,0,0
53400,51.6701120654375,39.2749619943886,10,0,0,0
53500,51.6701202204375,39.2749888719025,10,0,0,0
53600,51.6701283139886,39.2750158295261,10,0,0,0
53700,51.6701363457508,39.2750428669529,10,0,0,0
53800,51.6701443153842,39.2750699838731,10,0,0,0
53900,51.6701522225493,39.2750971799735,10,0,0,0
54000,51.6701600669065,39.2751244549372,10,0,0,0
54100,51.6701678481167,39.275151808444,10,0,0,0
54200,51.670175565841,39.2751792401703,10,0,0,0
54300,51.6701832197406,39.2752067497887,10,0,0,0
54400,51.6701908094772,39.2752343369685,10,0,0,0
54500,51.6701983347126,39.2752620013756,10,0,0,0
54600,51.6702057951091,39.2752897426721,10,0,0,0
54700,51.670213190329,39.2753175605168,10,0,0,0
54800,51.6702205200352,39.2753454545648,10,0,0,0
54900,51.6702277838908,39.2753734244679,10,0,0,0
55000,51.6702349815593,39.2754014698742,10,0,0,0
55100,51.6702421127046,39.2754295904282,10,0,0,0
55200,51.6702491769908,39.2754577857709,10,0,0,0
55300,51.6702561740825,39.2754860555398,10,0,0,0
55400,51.6702631036448,39.2755143993687,10,0,0,0
55500,51.670269965343,39.2755428168881,10,0,0,0
55600,51.670276758843,39.2755713077246,10,0,0,0
55700,51.670283483811,39.2755998715014,10,0,0,0
55800,51.6702901399138,39.2756285078381,10,0,0,0
55900,51.6702967268186,39.2756572163506,10,0,0,0
56000,51.6703032441929,39.2756859966513,10,0,0,0
56100,51.670309691705,39.2757148483489,10,0,0,0
56200,51.6703160690235,39.2757437710486,10,0,0,0
56300,51.6703223758176,39.275772764352,10,0,0,0
56400,51.6703286117569,39.275801827857,10,0,0,0
56500,51.6703347765117,39.2758309611578,10,0,0,0
56600,51.6703408697529,39.2758601638451,10,0,0,0
56700,51.6703468911517,39.275889435506,10,0,0,0
56800,51.6703528403802,39.2759187757237,10,0,0,0
56900,51.6703587171108,39.2759481840782,10,0,0,0
57000,51.6703645210168,39.2759776601454,10,0,0,0
57100,51.670370251772,39.2760072034979,10,0,0,0
57200,51.6703759090508,39.2760368137043,10,0,0,0
57300,51.6703814925282,39.2760664903299,10,0,0,0
57400,51.6703870018801,39.276096232936,10,0,0,0
57500,51.6703924367829,39.2761260410806,10,0,0,0
57600,51.6703977969138,39.2761559143176,10,0,0,0
57700,51.6704030819505,39.2761858521976,10,0,0,0
57800,51.6704082915717,39.2762158542673,10,0,0,0
57900,51.6704134254566,39.2762459200699,10,0,0,0
58000,51.6704184832854,39.2762760491447,10,0,0,0
58100,51.6704234647389,39.2763062410274,10,0,0,0
58200,51.6704283694988,39.2763364952501,10,0,0,0
58300,51.6704331972473,39.2763668113411,10,0,0,0
58400,51.6704379476678,39.2763971888251,10,0,0,0
58500,51.6704426204444,39.276427627223,10,0,0,0
58600,51.6704472152619,39.276458126052,10,0,0,0
58700,51.6704517318061,39.2764886848257,10,0,0,0
58800,51.6704561697637,39.276519303054,10,0,0,0
58900,51.6704605288221,39.2765499802429,10,0,0,0
59000,51.6704648086698,39.2765807158949,10,0,0,0
59100,51.6704690089961,39.2766115095087,10,0,0,0
59200,51.6704731294913,39.2766423605793,10,0,0,0
59300,51.6704771698466,39.276673268598,10,0,0,0
59400,51.6704811297542,39.2767042330524,10,0,0,0
59500,51.6704850089072,39.2767352534263,10,0,0,0
59600,51.6704888069998,39.2767663292,10,0,0,0
59700,51.6704925237272,39.2767974598497,10,0,0,0
59800,51.6704961587855,39.2768286448483,10,0,0,0
59900,51.6704997118719,39.2768598836647,10,0,0,0
60000,51.6705031826847,39.2768911757642,10,0,0,0
60100,51.6705065709233,39.2769225206084,10,0,0,0
60200,51.670509876288,39.2769539176552,10,0,0,0
60300,51.6705130984805,39.2769853663585,10,0,0,0
60400,51.6705162372033,39.2770168661689,10,0,0,0
60500,51.6705192921602,39.2770484165331,10,0,0,0
60600,51.6705222630561,39.2770800168939,10,0,0,0
60700,51.6705251495972,39.2771116666908,10,0,0,0
60800,51.6705279514906,39.2771433653591,10,0,0,0
60900,51.6705306684449,39.2771751123307,10,0,0,0
61000,51.6705333001696,39.2772069070337,10,0,0,0
61100,51.6705358463758,39.2772387488926,10,0,0,0
61200,51.6705383067755,39.277270637328,10,0,0,0
61300,51.6705406810821,39.2773025717568,10,0,0,0
61400,51.6705429690103,39.2773345515924,10,0,0,0
61500,51.6705451702761,39.2773665762443,10,0,0,0
61600,51.6705472845967,39.2773986451184,10,0,0,0
61700,51.6705493116907,39.2774307576167,10,0,0,0
61800,51.670551251278,39.2774629131379,10,0,0,0
61900,51.6705531030799,39.2774951110765,10,0,0,0
62000,51.6705548668192,39.2775273508237,10,0,0,0
62100,51.6705565422197,39.2775596317669,10,0,0,0
62200,51.670558129007,39.2775919532897,10,0,0,0
62300,51.670559626908,39.2776243147722,10,0,0,0
62400,51.6705610356509,39.2776567155905,10,0,0,0
62500,51.6705623549655,39.2776891551175,10,0,0,0
62600,51.6705635845831,39.2777216327219,10,0,0,0
62700,51.6705647242363,39.2777541477692,10,0,0,0
62800,51.6705657736594,39.2777866996209,10,0,0,0
62900,51.6705667325881,39.2778192876349,10,0,0,0
63000,51.6705676007597,39.2778519111657,10,0,0,0
63100,51.670568377913,39.2778845695637,10,0,0,0
63200,51.6705690637885,39.2779172621761,10,0,0,0
63300,51.670569658128,39.277949988346,10,0,0,0
63400,51.6705701606753,39.2779827474134,10,0,0,0
63500,51.6705705711755,39.2780155387141,10,0,0,0
63600,51.6705708893755,39.2780483615807,10,0,0,0
63700,51.6705711150237,39.278081215342,10,0,0,0
63800,51.6705712478704,39.2781140993232,10,0,0,0
63900,51.6705712876674,39.2781470128457,10,0,0,0
64000,51.6705712341683,39.2781799552277,10,0,0,0
64100,51.6705710871284,39.2782129257835,10,0,0,0
64200,51.6705708463046,39.2782459238239,10,0,0,0
64300,51.6705705114559,39.278278948656,10,0,0,0
64400,51.6705700823427,39.2783119995835,10,0,0,0
64500,51.6705695587273,39.2783450759064,10,0,0,0
64600,51.6705689403741,39.2783781769213,10,0,0,0
64700,51.6705682270488,39.2784113019209,10,0,0,0
64800,51.6705674185195,39.2784444501946,10,0,0,0
64900,51.6705665145556,39.2784776210284,10,0,0,0
65000,51.6705655149289,39.2785108137044,10,0,0,0
65100,51.6705644194127,39.2785440275014,10,0,0,0
65200,51.6705632277824,39.2785772616946,10,0,0,0
65300,51.6705619398153,39.2786105155558,10,0,0,0
65400,51.6705605552906,39.2786437883532,10,0,0,0
65500,51.6705590739896,39.2786770793514,10,0,0,0
65600,51.6705574956953,39.2787103878118,10,0,0,0
65700,51.670555820193,39.2787437129921,10,0,0,0
65800,51.6705540472699,39.2787770541465,10,0,0,0
65900,51.6705521767152,39.278810410526,10,0,0,0
66000,51.6705502083201,39.2788437813779,10,0,0,0
66100,51.670548141878,39.2788771659462,10,0,0,0
66200,51.6705459771844,39.2789105634713,10,0,0,0
66300,51.6705437140366,39.2789439731904,10,0,0,0
66400,51.6705413522345,39.2789773943373,10,0,0,0
66500,51.6705388915796,39.2790108261421,10,0,0,0
66600,51.6705363318761,39.2790442678319,10,0,0,0
66700,51.6705336729299,39.2790777186302,10,0,0,0
66800,51.6705309145495,39.2791111777572,10,0,0,0
66900,51.6705280565451,39.2791446444296,10,0,0,0
67000,51.6705250987297,39.2791781178611,10,0,0,0
67100,51.6705220409181,39.2792115972618,10,0,0,0
67200,51.6705188829276,39.2792450818385,10,0,0,0
67300,51.6705156245777,39.2792785707948,10,0,0,0
67400,51.6705122656902,39.2793120633309,10,0,0,0
67500,51.6705088060891,39.279345558644,10,0,0,0
67600,51.6705052456009,39.2793790559276,10,0,0,0
67700,51.6705015840544,39.2794125543723,10,0,0,0
67800,51.6704978212807,39.2794460531653,10,0,0,0
67900,51.6704939571134,39.2794795514906,10,0,0,0
68000,51.6704899913883,39.2795130485291,10,0,0,0
68100,51.6704859239438,39.2795465434583,10,0,0,0
68200,51.6704817546207,39.2795800354527,10,0,0,0
68300,51.6704774832623,39.2796135236835,10,0,0,0
68400,51.6704731097141,39.279647007319,10,0,0,0
68500,51.6704686338245,39.2796804855239,10,0,0,0
68600,51.670464055444,39.2797139574603,10,0,0,0
68700,51.6704593744259,39.2797474222868,10,0,0,0
68800,51.6704545906259,39.2797808791591,10,0,0,0
68900,51.6704497039024,39.2798143272298,10,0,0,0
69000,51.6704447141162,39.2798477656484,10,0,0,0
69100,51.6704396211307,39.2798811935613,10,0,0,0
69200,51.6704344248122,39.2799146101122,10,0,0,0
69300,51.6704291250292,39.2799480144413,10,0,0,0
69400,51.6704237216532,39.2799814056862,10,0,0,0
69500,51.6704182145581,39.2800147829813,10,0,0,0
69600,51.6704126036206,39.2800481454581,10,0,0,0
69700,51.6704068887201,39.2800814922452,10,0,0,0
69800,51.6704010697388,39.2801148224683,10,0,0,0
69900,51.6703951465614,39.2801481352501,10,0,0,0
70000,51.6703891190756,39.2801814297105,10,0,0,0
70100,51.6703829871717,39.2802147049664,10,0,0,0
70200,51.6703767507428,39.280247960132,10,0,0,0
70300,51.6703704096848,39.2802811943186,10,0,0,0
70400,51.6703639638965,39.2803144066347,10,0,0,0
70500,51.6703574132796,39.280347596186,10,0,0,0
70600,51.6703507577383,39.2803807620754,10,0,0,0
70700,51.6703439971801,39.2804139034031,10,0,0,0
70800,51.6703371315151,39.2804470192666,10,0,0,0
70900,51.6703301606564,39.2804801087605,10,0,0,0
71000,51.6703230845201,39.2805131709769,10,0,0,0
71100,51.670315903025,39.2805462050052,10,0,0,0
71200,51.6703086160932,39.280579209932,10,0,0,0
71300,51.6703012236494,39.2806121848415,10,0,0,0
71400,51.6702937256216,39.2806451288151,10,0,0,0
71500,51.6702861219407,39.2806780409317,10,0,0,0
71600,51.6702784125405,39.2807109202676,10,0,0,0
71700,51.670270597358,39.2807437658966,10,0,0,0
71800,51.6702626763332,39.2807765768898,10,0,0,0
71900,51.6702546494091,39.2808093523162,10,0,0,0
72000,51.6702465165319,39.2808420912419,10,0,0,0
72100,51.670238277651,39.2808747927307,10,0,0,0
72200,51.6702299327186,39.2809074558441,10,0,0,0
72300,51.6702214816904,39.2809400796411,10,0,0,0
72400,51.670212924525,39.2809726631781,10,0,0,0
72500,51.6702042611842,39.2810052055095,10,0,0,0
72600,51.6701954916332,39.2810377056871,10,0,0,0
72700,51.6701866158402,39.2810701627606,10,0,0,0
72800,51.6701776337767,39.2811025757772,10,0,0,0
72900,51.6701685454174,39.281134943782,10,0,0,0
73000,51.6701593507403,39.2811672658178,10,0,0,0
73100,51.6701500497267,39.2811995409252,10,0,0,0
73200,51.670140642361,39.2812317681426,10,0,0,0
73300,51.6701311286313,39.2812639465062,10,0,0,0
73400,51.6701215085285,39.2812960750502,10,0,0,0
73500,51.6701117820473,39.2813281528065,10,0,0,0
73600,51.6701019491855,39.281360178805,10,0,0,0
73700,51.6700920099443,39.2813921520737,10,0,0,0
73800,51.6700819643283,39.2814240716384,10,0,0,0
73900,51.6700718123457,39.2814559365229,10,0,0,0
74000,51.6700615540077,39.281487745749,10,0,0,0
74100,51.6700511893293,39.2815194983367,10,0,0,0
74200,51.6700407183287,39.281551193304,10,0,0,0
74300,51.6700301410279,39.2815828296669,10,0,0,0
74400,51.6700194574519,39.2816144064398,10,0,0,0
74500,51.6700086676297,39.281645922635,10,0,0,0
74600,51.6699977715934,39.2816773772632,10,0,0,0
74700,51.6699867693788,39.2817087693332,10,0,0,0
74800,51.6699756610253,39.281740097852,10,0,0,0
74900,51.6699644465758,39.281771361825,10,0,0,0
75000,51.6699531260768,39.2818025602559,10,0,0,0
75100,51.6699416995782,39.2818336921468,10,0,0,0
75200,51.6699301671337,39.281864756498,10,0,0,0
75300,51.6699185288007,39.2818957523084,10,0,0,0
75400,51.6699067846399,39.2819266785751,10,0,0,0
75500,51.669894934716,39.2819575342939,10,0,0,0
75600,51.6698829790972,39.2819883184589,10,0,0,0
75700,51.6698709178553,39.2820190300629,10,0,0,0
75800,51.669858751066,39.2820496680973,10,0,0,0
75900,51.6698464788084,39.2820802315517,10,0,0,0
76000,51.6698341011657,39.2821107194148,10,0,0,0
76100,51.6698216182244,39.2821411306736,10,0,0,0
76200,51.6698090300753,39.2821714643142,10,0,0,0
76300,51.6697963368123,39.2822017193209,10,0,0,0
76400,51.6697835385337,39.2822318946771,10,0,0,0
76500,51.6697706353412,39.2822619893649,10,0,0,0
76600,51.6697576273403,39.2822920023653,10,0,0,0
76700,51.6697445146407,39.282321932658,10,0,0,0
76800,51.6697312973554,39.2823517792217,10,0,0,0
76900,51.6697179756017,39.282381541034,10,0,0,0
77000,51.6697045495004,39.2824112170714,10,0,0,0
77100,51.6696910191765,39.2824408063094,10,0,0,0
77200,51.6696773847587,39.2824703077227,10,0,0,0
77300,51.6696636463795,39.2824997202849,10,0,0,0
77400,51.6696498041756,39.2825290429686,10,0,0,0
77500,51.6696358582874,39.2825582747458,10,0,0,0
77600,51.6696218088592,39.2825874145874,10,0,0,0
77700,51.6696076560395,39.2826164614638,10,0,0,0
77800,51.6695933999805,39.2826454143443,10,0,0,0
77900,51.6695790408386,39.2826742721978,10,0,0,0
78000,51.669564578774,39.2827030339922,10,0,0,0
78100,51.669550013951,39.2827316986951,10,0,0,0
78200,51.6695353465379,39.2827602652731,10,0,0,0
78300,51.669520576707,39.2827887326927,10,0,0,0
78400,51.6695057046347,39.2828170999193,10,0,0,0
78500,51.6694907305014,39.2828453659183,10,0,0,0
78600,51.6694756544915,39.2828735296544,10,0,0,0
78700,51.6694604767935,39.2829015900919,10,0,0,0
78800,51.6694451976002,39.2829295461947,10,0,0,0
78900,51.6694298171082,39.2829573969264,10,0,0,0
79000,51.6694143355184,39.2829851412503,10,0,0,0
79100,51.6693987530356,39.2830127781294,10,0,0,0
79200,51.669383069869,39.2830403065266,10,0,0,0
79300,51.6693672862317,39.2830677254043,10,0,0,0
79400,51.6693514023413,39.2830950337251,10,0,0,0
79500,51.6693354184191,39.2831222304513,10,0,0,0
79600,51.6693193346908,39.2831493145453,10,0,0,0
79700,51.6693031513864,39.2831762849692,10,0,0,0
79800,51.66928686874,39.2832031406853,10,0,0,0
79900,51.6692704869897,39.2832298806561,10,0,0,0
80000,51.6692540063782,39.2832565038438,10,0,0,0
80100,51.6692374271521,39.2832830092111,10,0,0,0
80200,51.6692207495624,39.2833093957207,10,0,0,0
80300,51.6692039738643,39.2833356623356,10,0,0,0
80400,51.6691871003172,39.283361808019,10,0,0,0
80500,51.6691701291848,39.2833878317345,10,0,0,0
80600,51.6691530607352,39.283413732446,10,0,0,0
80700,51.6691358952405,39.2834395091177,10,0,0,0
80800,51.6691186329774,39.2834651607144,10,0,0,0
80900,51.6691012742266,39.2834906862013,10,0,0,0
81000,51.6690838192735,39.2835160845441,10,0,0,0
81100,51.6690662684073,39.283541354709,10,0,0,0
81200,51.6690486219219,39.2835664956631,10,0,0,0
81300,51.6690308801155,39.2835915063738,10,0,0,0
81400,51.6690130432905,39.2836163858094,10,0,0,0
81500,51.6689951117537,39.2836411329389,10,0,0,0
81600,51.6689770858164,39.2836657467321,10,0,0,0
81700,51.668958965794,39.2836902261596,10,0,0,0
81800,51.6689407520064,39.2837145701929,10,0,0,0
81900,51.6689224447779,39.2837387778044,10,0,0,0
82000,51.6689040444373,39.2837628479674,10,0,0,0
82100,51.6688855513175,39.2837867796565,10,0,0,0
82200,51.668866965756,39.2838105718469,10,0,0,0
82300,51.6688482880947,39.2838342235154,10,0,0,0
82400,51.6688295186799,39.2838577336396,10,0,0,0
82500,51.6688106578623,39.2838811011985,10,0,0,0
82600,51.668791705997,39.2839043251721,10,0,0,0
82700,51.6687726634435,39.283927404542,10,0,0,0
82800,51.6687535305659,39.2839503382909,10,0,0,0
82900,51.6687343077325,39.283973125403,10,0,0,0
83000,51.6687149953162,39.2839957648639,10,0,0,0
83100,51.6686955936945,39.2840182556608,10,0,0,0
83200,51.668676103249,39.2840405967821,10,0,0,0
83300,51.6686565243661,39.2840627872183,10,0,0,0
83400,51.6686368574363,39.284084825961,10,0,0,0
83500,51.668617102855,39.2841067120037,10,0,0,0
83600,51.6685972610219,39.2841284443417,10,0,0,0
83700,51.6685773323409,39.284150021972,10,0,0,0
83800,51.6685573172209,39.2841714438934,10,0,0,0
83900,51.6685372160748,39.2841927091066,10,0,0,0
84000,51.6685170293204,39.2842138166141,10,0,0,0
84100,51.6684967573797,39.2842347654206,10,0,0,0
84200,51.6684764006793,39.2842555545326,10,0,0,0
84300,51.6684559596504,39.2842761829588,10,0,0,0
84400,51.6684354347285,39.28429664971,10,0,0,0
84500,51.6684148263538,39.2843169537991,10,0,0,0
84600,51.6683941349709,39.2843370942412,10,0,0,0
84700,51.668373361029,39.2843570700538,10,0,0,0
84800,51.6683525049817,39.2843768802566,10,0,0,0
84900,51.6683315672872,39.2843965238718,10,0,0,0
85000,51.6683105484082,39.2844159999238,10,0,0,0
85100,51.6682894488119,39.2844353074397,10,0,0,0
85200,51.66826826897,39.2844544454491,10,0,0,0
85300,51.6682470093588,39.2844734129839,10,0,0,0
85400,51.668225670459,39.284492209079,10,0,0,0
85500,51.668204252756,39.2845108327718,10,0,0,0
85600,51.6681827567397,39.2845292831024,10,0,0,0
85700,51.6681611829042,39.2845475591136,10,0,0,0
85800,51.6681395317486,39.2845656598514,10,0,0,0
85900,51.6681178037762,39.2845835843642,10,0,0,0
86000,51.6680959994949,39.2846013317038,10,0,0,0
86100,51.6680741194171,39.2846189009246,10,0,0,0
86200,51.66805216406,39.2846362910843,10,0,0,0
86300,51.6680301339448,39.2846535012435,10,0,0,0
86400,51.6680080295977,39.2846705304662,10,0,0,0
86500,51.6679858515491,39.2846873778194,10,0,0,0
86600,51.6679636003342,39.2847040423734,10,0,0,0
86700,51.6679412764924,39.2847205232019,10,0,0,0
86800,51.6679188805678,39.2847368193818,10,0,0,0
86900,51.6678964131091,39.2847529299935,10,0,0,0
87000,51.6678738746693,39.284768854121,10,0,0,0
87100,51.667851265806,39.2847845908516,10,0,0,0
87200,51.6678285870813,39.2848001392764,10,0,0,0
87300,51.6678058390617,39.2848154984899,10,0,0,0
87400,51.6677830223185,39.2848306675904,10,0,0,0
87500,51.6677601374271,39.28484564568,10,0,0,0
87600,51.6677371849677,39.2848604318645,10,0,0,0
87700,51.6677141655248,39.2848750252536,10,0,0,0
87800,51.6676910796874,39.2848894249609,10,0,0,0
87900,51.667667928049,39.284903630104,10,0,0,0
88000,51.6676447112077,39.2849176398043,10,0,0,0
88100,51.6676214297658,39.2849314531877,10,0,0,0
88200,51.6675980843303,39.2849450693837,10,0,0,0
88300,51.6675746755125,39.2849584875265,10,0,0,0
88400,51.6675512039282,39.284971706754,10,0,0,0
88500,51.6675276701977,39.2849847262089,10,0,0,0
88600,51.6675040749457,39.2849975450379,10,0,0,0
88700,51.6674804188012,39.2850101623922,10,0,0,0
88800,51.6674567023978,39.2850225774276,10,0,0,0
88900,51.6674329263735,39.2850347893041,10,0,0,0
89000,51.6674090913706,39.2850467971866,10,0,0,0
89100,51.6673851980358,39.2850586002444,10,0,0,0
89200,51.6673612470203,39.2850701976516,10,0,0,0
89300,51.6673372389796,39.285081588587,10,0,0,0
89400,51.6673131745736,39.2850927722342,10,0,0,0
89500,51.6672890544667,39.2851037477815,10,0,0,0
89600,51.6672648793274,39.2851145144224,10,0,0,0
89700,51.6672406498288,39.2851250713552,10,0,0,0
89800,51.667216366648,39.2851354177831,10,0,0,0
89900,51.6671920304669,39.2851455529146,10,0,0,0
90000,51.6671676419713,39.2851554759631,10,0,0,0
90100,51.6671432018516,39.2851651861474,10,0,0,0
90200,51.6671187108024,39.2851746826915,10,0,0,0
90300,51.6670941695224,39.2851839648245,10,0,0,0
90400,51.6670695787149,39.2851930317811,10,0,0,0
90500,51.6670449390873,39.2852018828014,10,0,0,0
90600,51.6670202513512,39.2852105171307,10,0,0,0
90700,51.6669955162226,39.2852189340202,10,0,0,0
90800,51.6669707344217,39.2852271327263,10,0,0,0
90900,51.6669459066727,39.2852351125114,10,0,0,0
91000,51.6669210337043,39.2852428726433,10,0,0,0
91100,51.6668961162493,39.2852504123959,10,0,0,0
91200,51.6668711550445,39.2852577310484,10,0,0,0
91300,51.6668461508312,39.2852648278864,10,0,0,0
91400,51.6668211043546,39.2852717022011,10,0,0,0
91500,51.6667960163641,39.2852783532897,10,0,0,0
91600,51.6667708876134,39.2852847804556,10,0,0,0
91700,51.6667457188599,39.2852909830082,10,0,0,0
91800,51.6667205108655,39.2852969602629,10,0,0,0
91900,51.666695264396,39.2853027115416,10,0,0,0
92000,51.6666699802214,39.2853082361723,10,0,0,0
92100,51.6666446591156,39.2853135334893,10,0,0,0
92200,51.6666193018565,39.2853186028333,10,0,0,0
92300,51.6665939092263,39.2853234435515,10,0,0,0
92400,51.6665684820109,39.2853280549975,10,0,0,0
92500,51.6665430210003,39.2853324365315,10,0,0,0
92600,51.6665175269885,39.2853365875203,10,0,0,0
92700,51.6664920007734,39.2853405073373,10,0,0,0
92800,51.666466443157,39.2853441953629,10,0,0,0
92900,51.6664408549449,39.2853476509837,10,0,0,0
93000,51.6664152369468,39.2853508735938,10,0,0,0
93100,51.6663895899765,39.2853538625937,10,0,0,0
93200,51.6663639148511,39.2853566173911,10,0,0,0
93300,51.6663382123921,39.2853591374005,10,0,0,0
93400,51.6663124834245,39.2853614220436,10,0,0,0
93500,51.6662867287772,39.2853634707493,10,0,0,0
93600,51.6662609492829,39.2853652829534,10,0,0,0
93700,51.6662351457781,39.2853668580993,10,0,0,0
93800,51.6662093191029,39.2853681956372,10,0,0,0
93900,51.6661834701013,39.2853692950251,10,0,0,0
94000,51.6661575996208,39.2853701557281,10,0,0,0
94100,51.6661317085129,39.2853707772188,10,0,0,0
94200,51.6661057976324,39.2853711589775,10,0,0,0
94300,51.666079867838,39.2853713004919,10,0,0,0
94400,51.6660539199919,39.2853712012572,10,0,0,0
94500,51.6660279549599,39.2853708607765,10,0,0,0
94600,51.6660019736114,39.2853702785605,10,0,0,0
94700,51.6659759768193,39.2853694541278,10,0,0,0
94800,51.6659499654601,39.2853683870046,10,0,0,0
94900,51.6659239404137,39.2853670767253,10,0,0,0
95000,51.6658979025636,39.285365522832,10,0,0,0
95100,51.6658718527967,39.285363724875,10,0,0,0
95200,51.6658457920032,39.2853616824125,10,0,0,0
95300,51.6658197210771,39.285359395011,10,0,0,0
95400,51.6657936409152,39.2853568622448,10,0,0,0
95500,51.6657675524182,39.2853540836969,10,0,0,0
95600,51.6657414564897,39.2853510589583,10,0,0,0
95700,51.6657153540369,39.2853477876284,10,0,0,0
95800,51.6656892459701,39.2853442693148,10,0,0,0
95900,51.6656631332029,39.2853405036339,10,0,0,0
96000,51.6656370166523,39.2853364902104,10,0,0,0
96100,51.6656108972382,39.2853322286774,10,0,0,0
96200,51.6655847758837,39.2853277186768,10,0,0,0
96300,51.6655586535154,39.2853229598592,10,0,0,0
96400,51.6655325310625,39.2853179518838,10,0,0,0
96500,51.6655064094577,39.2853126944184,10,0,0,0
96600,51.6654802896365,39.28530718714,10,0,0,0
96700,51.6654541725376,39.2853014297341,10,0,0,0
96800,51.6654280591026,39.2852954218953,10,0,0,0
96900,51.665401950276,39.2852891633272,10,0,0,0
97000,51.6653758470053,39.2852826537424,10,0,0,0
97100,51.665349750241,39.2852758928623,10,0,0,0
97200,51.6653236609365,39.2852688804179,10,0,0,0
97300,51.6652975800477,39.2852616161491,10,0,0,0
97400,51.6652715085337,39.2852540998049,10,0,0,0
97500,51.6652454473563,39.285246331144,10,0,0,0
97600,51.6652193974799,39.2852383099339,10,0,0,0
97700,51.6651933598717,39.285230035952,10,0,0,0
97800,51.6651673355017,39.2852215089848,10,0,0,0
97900,51.6651413253424,39.2852127288284,10,0,0,0
98000,51.6651153303689,39.2852036952884,10,0,0,0
98100,51.6650893515591,39.2851944081799,10,0,0,0
98200,51.6650633898933,39.2851848673279,10,0,0,0
98300,51.6650374463542,39.2851750725667,10,0,0,0
98400,51.6650115219273,39.2851650237407,10,0,0,0
98500,51.6649856176003,39.2851547207038,10,0,0,0
98600,51.6649597343634,39.28514416332,10,0,0,0
98700,51.6649338732091,39.2851333514628,10,0,0,0
98800,51.6649080351326,39.285122285016,10,0,0,0
98900,51.6648822211308,39.2851109638731,10,0,0,0
99000,51.6648564322035,39.2850993879378,10,0,0,0
99100,51.6648306693522,39.2850875571239,10,0,0,0
99200,51.6648049335811,39.285075471355,10,0,0,0
99300,51.6647792258961,39.2850631305652,10,0,0,0
99400,51.6647535473057,39.2850505346986,10,0,0,0
99500,51.66472789882,39.2850376837097,10,0,0,0
99600,51.6647022814516,39.2850245775633,10,0,0,0
99700,51.6646766962148,39.2850112162343,10,0,0,0
99800,51.664651144126,39.2849975997083,10,0,0,0
99900,51.6646256262035,39.2849837279811,10,0,0,0
100000,51.6646001434677,39.2849696010592,10,0,0,0
100100,51.6645746969405,39.2849552189594,10,0,0,0
100200,51.664549287646,39.2849405817092,10,0,0,0
100300,51.6645239166097,39.2849256893467,10,0,0,0
100400,51.6644985848591,39.2849105419206,10,0,0,0
100500,51.6644732934234,39.2848951394904,10,0,0,0
100600,51.6644480433334,39.2848794821262,10,0,0,0
100700,51.6644228356215,39.2848635699089,10,0,0,0
100800,51.6643976713217,39.2848474029304,10,0,0,0
100900,51.6643725514694,39.2848309812933,10,0,0,0
101000,51.6643474771019,39.2848143051111,10,0,0,0
101100,51.6643224492575,39.2847973745084,10,0,0,0
101200,51.6642974689761,39.2847801896206,10,0,0,0
101300,51.6642725372989,39.2847627505943,10,0,0,0
101400,51.6642476552687,39.284745057587,10,0,0,0
101500,51.6642228239292,39.2847271107675,10,0,0,0
101600,51.6641980443255,39.2847089103155,10,0,0,0
101700,51.6641733175039,39.2846904564221,10,0,0,0
101800,51.664148644512,39.2846717492895,10,0,0,0
101900,51.6641240263982,39.2846527891313,10,0,0,0
102000,51.6640994642121,39.2846335761723,10,0,0,0
102100,51.6640749590044,39.2846141106486,10,0,0,0
102200,51.6640505118267,39.2845943928077,10,0,0,0
102300,51.6640261237314,39.2845744229086,10,0,0,0
102400,51.6640017957721,39.2845542012217,10,0,0,0
102500,51.6639775290029,39.2845337280287,10,0,0,0
102600,51.6639533244789,39.2845130036232,10,0,0,0
102700,51.6639291832558,39.2844920283099,10,0,0,0
102800,51.6639051063901,39.2844708024054,10,0,0,0
102900,51.6638810949388,39.2844493262379,10,0,0,0
103000,51.6638571499598,39.2844276001471,10,0,0,0
103100,51.6638332725111,39.2844056244844,10,0,0,0
103200,51.6638094636517,39.2843833996131,10,0,0,0
103300,51.6637857244406,39.284360925908,10,0,0,0
103400,51.6637620559375,39.2843382037559,10,0,0,0
103500,51.6637384592024,39.2843152335553,10,0,0,0
103600,51.6637149352955,39.2842920157166,10,0,0,0
103700,51.6636914852774,39.2842685506619,10,0,0,0
103800,51.6636681102089,39.2842448388254,10,0,0,0
103900,51.6636448111507,39.2842208806531,10,0,0,0
104000,51.663621589164,39.2841966766031,10,0,0,0
104100,51.6635984453098,39.2841722271454,10,0,0,0
104200,51.6635753806492,39.284147532762,10,0,0,0
104300,51.6635523962432,39.2841225939469,10,0,0,0
104400,51.6635294931528,39.2840974112063,10,0,0,0
104500,51.6635066724388,39.2840719850584,10,0,0,0
104600,51.6634839351616,39.2840463160335,10,0,0,0
104700,51.6634612823818,39.284020404674,10,0,0,0
104800,51.6634387151594,39.2839942515348,10,0,0,0
104900,51.663416234554,39.2839678571825,10,0,0,0
105000,51.6633938416249,39.2839412221963,10,0,0,0
105100,51.663371537431,39.2839143471674,10,0,0,0
105200,51.6633493230306,39.2838872326994,10,0,0,0
105300,51.6633271994815,39.2838598794082,10,0,0,0
105400,51.6633051678406,39.2838322879218,10,0,0,0
105500,51.6632832291647,39.2838044588808,10,0,0,0
105600,51.6632613845092,39.283776392938,10,0,0,0
105700,51.6632396349293,39.2837480907585,10,0,0,0
105800,51.6632179814791,39.2837195530199,10,0,0,0
105900,51.6631964252117,39.2836907804123,10,0,0,0
106000,51.6631749671794,39.2836617736378,10,0,0,0
106100,51.6631536084336,39.2836325334114,10,0,0,0
106200,51.6631323500243,39.2836030604605,10,0,0,0
106300,51.6631111930009,39.2835733555246,10,0,0,0
106400,51.6630901384111,39.283543419356,10,0,0,0
106500,51.6630691873018,39.2835132527195,10,0,0,0
106600,51.6630483407184,39.2834828563923,10,0,0,0
106700,51.6630275997049,39.2834522311642,10,0,0,0
106800,51.6630069653041,39.2834213778375,10,0,0,0
106900,51.6629864385573,39.283390297227,10,0,0,0
107000,51.6629660205042,39.2833589901603,10,0,0,0
107100,51.662945712183,39.2833274574772,10,0,0,0
107200,51.6629255146302,39.2832957000305,10,0,0,0
107300,51.6629054288809,39.2832637186853,10,0,0,0
107400,51.6628854559681,39.2832315143193,10,0,0,0
107500,51.6628655969231,39.2831990878231,10,0,0,0
107600,51.6628458527756,39.2831664400997,10,0,0,0
107700,51.662826224553,39.2831335720647,10,0,0,0
107800,51.6628067132811,39.2831004846464,10,0,0,0
107900,51.6627873199834,39.2830671787858,10,0,0,0
108000,51.6627680456814,39.2830336554366,10,0,0,0
108100,51.6627488913945,39.2829999155649,10,0,0,0
108200,51.6627298581399,39.2829659601496,10,0,0,0
108300,51.6627109469324,39.2829317901824,10,0,0,0
108400,51.6626921587846,39.2828974066675,10,0,0,0
108500,51.6626734947066,39.2828628106218,10,0,0,0
108600,51.6626549557063,39.2828280030748,10,0,0,0
108700,51.6626365427888,39.2827929850688,10,0,0,0
108800,51.6626182569567,39.2827577576588,10,0,0,0
108900,51.6626000992102,39.2827223219122,10,0,0,0
109000,51.6625820705466,39.2826866789093,10,0,0,0
109100,51.6625641719604,39.2826508297431,10,0,0,0
109200,51.6625464044435,39.282614775519,10,0,0,0
109300,51.6625287689848,39.2825785173554,10,0,0,0
109400,51.6625112665702,39.282542056383,10,0,0,0
109500,51.6624938981828,39.2825053937455,10,0,0,0
109600,51.6624766648024,39.282468530599,10,0,0,0
109700,51.662459567406,39.2824314681122,10,0,0,0
109800,51.6624426069672,39.2823942074666,10,0,0,0
109900,51.6624257844563,39.2823567498563,10,0,0,0
110000,51.6624091008405,39.2823190964879,10,0,0,0
110100,51.6623925570835,39.2822812485808,10,0,0,0
110200,51.6623761541457,39.2822432073666,10,0,0,0
110300,51.6623598929838,39.28220497409,10,0,0,0
110400,51.6623437745512,39.2821665500078,10,0,0,0
110500,51.6623277997974,39.2821279363897,10,0,0,0
110600,51.6623119696686,39.2820891345178,10,0,0,0
110700,51.6622962851069,39.2820501456867,10,0,0,0
110800,51.6622807470508,39.2820109712036,10,0,0,0
110900,51.6622653564349,39.2819716123881,10,0,0,0
111000,51.6622501141898,39.2819320705724,10,0,0,0
111100,51.6622350212422,39.2818923471011,10,0,0,0
111200,51.6622200785147,39.2818524433312,10,0,0,0
111300,51.6622052869257,39.2818123606323,10,0,0,0
111400,51.6621906473897,39.2817721003862,10,0,0,0
111500,51.6621761608167,39.2817316639872,10,0,0,0
111600,51.6621618281124,39.281691052842,10,0,0,0
111700,51.6621476501782,39.2816502683697,10,0,0,0
111800,51.6621336279111,39.2816093120014,10,0,0,0
111900,51.6621197622035,39.2815681851809,10,0,0,0
112000,51.6621060539434,39.2815268893641,10,0,0,0
112100,51.6620925040139,39.2814854260192,10,0,0,0
112200,51.6620791132937,39.2814437966265,10,0,0,0
112300,51.6620658826565,39.2814020026787,10,0,0,0
112400,51.6620528129714,39.2813600456805,10,0,0,0
112500,51.6620399051025,39.2813179271489,10,0,0,0
112600,51.6620271599089,39.2812756486128,10,0,0,0
112700,51.6620145782448,39.2812332116134,10,0,0,0
112800,51.6620021609594,39.281190617704,10,0,0,0
112900,51.6619899088965,39.2811478684496,10,0,0,0
113000,51.6619778228948,39.2811049654274,10,0,0,0
113100,51.6619659037879,39.2810619102267,10,0,0,0
113200,51.661954152404,39.2810187044484,10,0,0,0
113300,51.6619425695656,39.2809753497056,10,0,0,0
113400,51.6619311560902,39.2809318476231,10,0,0,0
113500,51.6619199127895,39.2808881998375,10,0,0,0
113600,51.6619088404697,39.2808444079972,10,0,0,0
113700,51.6618979399312,39.2808004737623,10,0,0,0
113800,51.6618872119689,39.2807563988048,10,0,0,0
113900,51.6618766573719,39.2807121848081,10,0,0,0
114000,51.6618662769232,39.2806678334674,10,0,0,0
114100,51.6618560714001,39.2806233464894,10,0,0,0
114200,51.6618460415741,39.2805787255924,10,0,0,0
114300,51.6618361882102,39.2805339725061,10,0,0,0
114400,51.6618265120676,39.2804890889717,10,0,0,0
114500,51.6618170138994,39.2804440767417,10,0,0,0
114600,51.6618076944523,39.2803989375803,10,0,0,0
114700,51.6617985544668,39.2803536732625,10,0,0,0
114800,51.6617895946769,39.2803082855751,10,0,0,0
114900,51.6617808158103,39.2802627763156,10,0,0,0
115000,51.6617722185883,39.2802171472931,10,0,0,0
115100,51.6617638037256,39.2801714003275,10,0,0,0
115200,51.66175557193,39.2801255372499,10,0,0,0
115300,51.6617475239031,39.2800795599025,10,0,0,0
115400,51.6617396603393,39.2800334701383,10,0,0,0
115500,51.6617319819266,39.2799872698212,10,0,0,0
115600,51.6617244893459,39.279940960826,10,0,0,0
115700,51.6617171832712,39.2798945450384,10,0,0,0
115800,51.6617100643696,39.2798480243547,10,0,0,0
115900,51.661703133301,39.2798014006819,10,0,0,0
116000,51.6616963907183,39.2797546759376,10,0,0,0
116100,51.6616898372672,39.27970785205,10,0,0,0
116200,51.6616834735861,39.2796609309578,10,0,0,0
116300,51.661677300306,39.2796139146102,10,0,0,0
116400,51.6616713180509,39.2795668049666,10,0,0,0
116500,51.661665527437,39.2795196039969,10,0,0,0
116600,51.6616599290732,39.2794723136811,10,0,0,0
116700,51.6616545235607,39.2794249360094,10,0,0,0
116800,51.6616493114932,39.2793774729824,10,0,0,0
116900,51.6616442934567,39.2793299266103,10,0,0,0
117000,51.6616394700294,39.2792822989137,10,0,0,0
117100,51.6616348417818,39.2792345919227,10,0,0,0
117200,51.6616304092764,39.2791868076777,10,0,0,0
117300,51.661626173068,39.2791389482285,10,0,0,0
117400,51.6616221337031,39.2790910156348,10,0,0,0
117500,51.6616182917205,39.2790430119659,10,0,0,0
117600,51.6616146476506,39.2789949393007,10,0,0,0
117700,51.6616112020158,39.2789467997275,10,0,0,0
117800,51.6616079553302,39.278898595344,10,0,0,0
117900,51.6616049080997,39.2788503282573,10,0,0,0
118000,51.6616020608217,39.2788020005838,10,0,0,0
118100,51.6615994139854,39.278753614449,10,0,0,0
118200,51.6615969680713,39.2787051719876,10,0,0,0
118300,51.6615947235517,39.2786566753431,10,0,0,0
118400,51.6615926808899,39.2786081266682,10,0,0,0
118500,51.6615908405409,39.2785595281244,10,0,0,0
118600,51.6615892029509,39.2785108818819,10,0,0,0
118700,51.6615877685572,39.2784621901196,10,0,0,0
118800,51.6615865377885,39.2784134550251,10,0,0,0
118900,51.6615855110644,39.2783646787945,10,0,0,0
119000,51.6615846887959,39.2783158636323,10,0,0,0
119100,51.6615840713847,39.2782670117514,10,0,0,0
119200,51.6615836592235,39.278218125373,10,0,0,0
119300,51.661583452696,39.2781692067263,10,0,0,0
119400,51.6615834521768,39.2781202580489,10,0,0,0
119500,51.661583658031,39.2780712815861,10,0,0,0
119600,51.6615840706148,39.2780222795913,10,0,0,0
119700,51.6615846902747,39.2779732543256,10,0,0,0
119800,51.6615855173482,39.2779242080579,10,0,0,0
119900,51.661586552163,39.2778751430648,10,0,0,0
120000,51.6615877950376,39.2778260616302,10,0,0,0
120100,51.6615890378916,39.277776980193,10,0,0,0
120200,51.6615900726449,39.2777279151927,10,0,0,0
120300,51.661590899616,39.2776788689147,10,0,0,0
120400,51.6615915191326,39.277629843637,10,0,0,0
120500,51.6615919315321,39.2775808416297,10,0,0,0
120600,51.6615921371615,39.2775318651553,10,0,0,0
120700,51.6615921363766,39.2774829164685,10,0,0,0
120800,51.6615919295429,39.2774339978161,10,0,0,0
120900,51.661591517035,39.2773851114367,10,0,0,0
121000,51.6615908992367,39.2773362595611,10,0,0,0
121100,51.6615900765407,39.2772874444118,10,0,0,0
121200,51.6615890493491,39.2772386682028,10,0,0,0
121300,51.6615878180727,39.2771899331401,10,0,0,0
121400,51.6615863831314,39.277141241421,10,0,0,0
121500,51.661584744954,39.2770925952344,10,0,0,0
121600,51.6615829039779,39.2770439967605,10,0,0,0
121700,51.6615808606496,39.2769954481708,10,0,0,0
121800,51.661578615424,39.276946951628,10,0,0,0
121900,51.6615761687648,39.276898509286,10,0,0,0
122000,51.6615735211444,39.2768501232897,10,0,0,0
122100,51.6615706730434,39.276801795775,10,0,0,0
122200,51.6615676249512,39.2767535288686,10,0,0,0
122300,51.6615643773655,39.2767053246881,10,0,0,0
122400,51.6615609307922,39.2766571853418,10,0,0,0
