#BESTPOSA,USB1_29,0,73.0,FINESTEERING,2163,388965.000,03004120,cdba,16407;SOL_COMPUTED,PSRDIFF,45.00087627774,-72.99970565048,32.0180,-29.6000,WGS84,0.5633,0.4381,0.8615,"1",4.000,0.000,9,9,9,0,00,08,00,01*9b8bed15
#BESTPOSA,USB1_29,0,63.5,FINESTEERING,2163,388966.000,03004120,cdba,16407;SOL_COMPUTED,PSRDIFF,45.00086942239,-72.99966900248,32.0543,-29.6000,WGS84,0.5633,0.4381,0.8615,"1",4.000,0.000,9,9,9,0,00,08,00,01*56bf8948
#BESTPOSA,USB1_29,0,58.5,FINESTEERING,2163,388967.000,03004120,cdba,16407;SOL_COMPUTED,PSRDIFF,45.00086203799,-72.99963254809,32.0455,-29.6000,WGS84,0.5632,0.4381,0.8615,"1",4.000,0.000,9,9,9,0,00,08,00,01*bd60e263
#BESTPOSA,USB1_29,0,58.5,FINESTEERING,2163,388968.000,03004120,cdba,16407;SOL_COMPUTED,PSRDIFF,45.00085373632,-72.99959658127,32.0669,-29.6000,WGS84,0.5632,0.4380,0.8615,"1",4.000,0.000,9,9,9,0,00,08,00,01*b1a6818a
#BESTPOSA,USB1_29,0,74.5,FINESTEERING,2163,388969.000,03004120,cdba,16407;SOL_COMPUTED,PSRDIFF,45.00084468679,-72.99956078004,32.0806,-29.6000,WGS84,0.5632,0.4380,0.8615,"1",4.000,0.000,9,9,9,0,00,08,00,01*f0fb5b1c
#BESTPOSA,USB1_29,0,73.0,FINESTEERING,2163,388970.000,03004120,cdba,16407;SOL_COMPUTED,PSRDIFF,45.00083497266,-72.99952547219,32.0835,-29.6000,WGS84,0.5631,0.4380,0.8615,"1",4.000,0.000,9,9,9,0,00,08,00,01*e27d59bb
#BESTPOSA,USB1_29,0,71.5,FINESTEERING,2163,388971.000,03004120,cdba,16407;SOL_COMPUTED,PSRDIFF,45.00082444918,-72.99949067456,32.1179,-29.6000,WGS84,0.5631,0.4380,0.8614,"1",4.000,0.000,9,9,9,0,00,08,00,01*01b430af
#BESTPOSA,USB1_29,0,71.5,FINESTEERING,2163,388972.000,03004120,cdba,16407;SOL_COMPUTED,PSRDIFF,45.00081318291,-72.99945618670,32.1137,-29.6000,WGS84,0.5630,0.4380,0.8614,"1",4.000,0.000,9,9,9,0,00,08,00,01*6c00471f
#BESTPOSA,USB1_29,0,74.0,FINESTEERING,2163,388973.000,03004120,cdba,16407;SOL_COMPUTED,PSRDIFF,45.00080118555,-72.99942227690,32.1480,-29.6000,WGS84,0.5630,0.4380,0.8614,"1",4.000,0.000,9,9,9,0,00,08,00,01*1482c517
#BESTPOSA,USB1_29,0,77.0,FINESTEERING,2163,388974.000,03004120,cdba,16407;SOL_COMPUTED,PSRDIFF,45.00078854224,-72.99938885486,32.1468,-29.6000,WGS84,0.5630,0.4380,0.8614,"1",4.000,0.000,9,9,9,0,00,08,00,01*43563770
#BESTPOSA,USB1_29,0,77.0,FINESTEERING,2163,388975.000,03004120,cdba,16407;SOL_COMPUTED,PSRDIFF,45.00077511415,-72.99935606369,32.1493,-29.6000,WGS84,0.5629,0.4380,0.8614,"1",4.000,0.000,9,9,9,0,00,08,00,01*ee3b2a78
#BESTPOSA,USB1_29,0,75.0,FINESTEERING,2163,388976.000,03004120,cdba,16407;SOL_COMPUTED,PSRDIFF,45.00076105388,-72.99932394391,32.1673,-29.6000,WGS84,0.5629,0.4380,0.8614,"1",4.000,0.000,9,9,9,0,00,08,00,01*ca6c103b
#BESTPOSA,USB1_29,0,75.0,FINESTEERING,2163,388977.000,03004120,cdba,16407;SOL_COMPUTED,PSRDIFF,45.00074619623,-72.99929224423,32.1934,-29.6000,WGS84,0.5629,0.4380,0.8614,"1",4.000,0.000,9,9,9,0,00,08,00,01*4fa37a48
#BESTPOSA,USB1_29,0,75.0,FINESTEERING,2163,388978.000,03004120,cdba,16407;SOL_COMPUTED,PSRDIFF,45.00073075183,-72.99926126563,32.1941,-29.6000,WGS84,0.5629,0.4380,0.8614,"1",4.000,0.000,9,9,9,0,00,08,00,01*5e59c92b
#BESTPOSA,USB1_29,0,76.0,FINESTEERING,2163,388979.000,03004120,cdba,16407;SOL_COMPUTED,PSRDIFF,45.00071447327,-72.99923107918,32.2282,-29.6000,WGS84,0.5628,0.4379,0.8614,"1",4.000,0.000,9,9,9,0,00,08,00,01*86722291
#BESTPOSA,USB1_29,0,76.0,FINESTEERING,2163,388980.000,03004120,cdba,16407;SOL_COMPUTED,PSRDIFF,45.00069771326,-72.99920145748,32.2442,-29.6000,WGS84,0.5628,0.4379,0.8614,"1",4.000,0.000,9,9,9,0,00,08,00,01*52072f80
#BESTPOSA,USB1_29,0,76.5,FINESTEERING,2163,388981.000,03004120,cdba,16407;SOL_COMPUTED,PSRDIFF,45.00068043725,-72.99917254388,32.2527,-29.6000,WGS84,0.5628,0.4379,0.8614,"1",4.000,0.000,9,9,9,0,00,08,00,01*44948719
#BESTPOSA,USB1_29,0,76.5,FINESTEERING,2163,388982.000,03004120,cdba,16407;SOL_COMPUTED,PSRDIFF,45.00066236933,-72.99914442607,32.2758,-29.6000,WGS84,0.5627,0.4379,0.8614,"1",4.000,0.000,9,9,9,0,00,08,00,01*3d52843e
#BESTPOSA,USB1_29,0,77.0,FINESTEERING,2163,388983.000,03004120,cdba,16407;SOL_COMPUTED,PSRDIFF,45.00064386298,-72.99911709338,32.2838,-29.6000,WGS84,0.5627,0.4379,0.8614,"1",4.000,0.000,9,9,9,0,00,08,00,01*05cdc16e
#BESTPOSA,USB1_29,0,76.5,FINESTEERING,2163,388984.000,03004120,cdba,16407;SOL_COMPUTED,PSRDIFF,45.00062456340,-72.99909045591,32.3153,-29.6000,WGS84,0.5627,0.4379,0.8614,"1",4.000,0.000,9,9,9,0,00,08,00,01*b02c8d60
#BESTPOSA,USB1_29,0,76.5,FINESTEERING,2163,388985.000,03004120,cdba,16407;SOL_COMPUTED,PSRDIFF,45.00060489958,-72.99906482541,32.3308,-29.6000,WGS84,0.5626,0.4379,0.8614,"1",4.000,0.000,9,9,9,0,00,08,00,01*8893109d
#BESTPOSA,USB1_29,0,73.5,FINESTEERING,2163,388986.000,03004120,cdba,16407;SOL_COMPUTED,PSRDIFF,45.00058474088,-72.99903987101,32.3352,-29.6000,WGS84,0.5626,0.4379,0.8614,"1",4.000,0.000,9,9,9,0,00,08,00,01*69b919fd
#BESTPOSA,USB1_29,0,73.5,FINESTEERING,2163,388987.000,03004120,cdba,16407;SOL_COMPUTED,PSRDIFF,45.00056379763,-72.99901594282,32.3723,-29.6000,WGS84,0.5626,0.4379,0.8614,"1",4.000,0.000,9,9,9,0,00,08,00,01*9b661c42
#BESTPOSA,USB1_29,0,76.0,FINESTEERING,2163,388988.000,03004120,cdba,16407;SOL_COMPUTED,PSRDIFF,45.00054261749,-72.99899281300,32.3785,-29.6000,WGS84,0.5625,0.4379,0.8614,"1",4.000,0.000,9,9,9,0,00,08,00,01*8f9456f0
#BESTPOSA,USB1_29,0,76.5,FINESTEERING,2163,388989.000,03004120,cdba,16407;SOL_COMPUTED,PSRDIFF,45.00052080200,-72.99897064006,32.3832,-29.6000,WGS84,0.5625,0.4379,0.8614,"1",4.000,0.000,9,9,9,0,00,08,00,01*ceecef13
#BESTPOSA,USB1_29,0,76.0,FINESTEERING,2163,388990.000,03004120,cdba,16407;SOL_COMPUTED,PSRDIFF,45.00049850829,-72.99894948454,32.4005,-29.6000,WGS84,0.5625,0.4379,0.8614,"1",4.000,0.000,9,9,9,0,00,08,00,01*c5be1431
#BESTPOSA,USB1_29,0,76.0,FINESTEERING,2163,388991.000,03004120,cdba,16407;SOL_COMPUTED,PSRDIFF,45.00047575853,-72.99892911047,32.4259,-29.6000,WGS84,0.5625,0.4379,0.8614,"1",4.000,0.000,9,9,9,0,00,08,00,01*5db760b9
#BESTPOSA,USB1_29,0,76.5,FINESTEERING,2163,388992.000,03004120,cdba,16407;SOL_COMPUTED,PSRDIFF,45.00045257193,-72.99890988734,32.4490,-29.6000,WGS84,0.5624,0.4379,0.8614,"1",4.000,0.000,9,9,9,0,00,08,00,01*10142396
#BESTPOSA,USB1_29,0,79.0,FINESTEERING,2163,388993.000,03004120,cdba,16407;SOL_COMPUTED,PSRDIFF,45.00042907461,-72.99889157706,32.4579,-29.6000,WGS84,0.5624,0.4379,0.8614,"1",4.000,0.000,9,9,9,0,00,08,00,01*6e51cd45
#BESTPOSA,USB1_29,0,77.0,FINESTEERING,2163,388994.000,03004120,cdba,16407;SOL_COMPUTED,PSRDIFF,45.00040506322,-72.99887431129,32.4832,-29.6000,WGS84,0.5624,0.4379,0.8614,"1",4.000,0.000,9,9,9,0,00,08,00,01*994f7c6a
#BESTPOSA,USB1_29,0,76.5,FINESTEERING,2163,388995.000,03004120,cdba,16407;SOL_COMPUTED,PSRDIFF,45.00038077225,-72.99885800055,32.5071,-29.6000,WGS84,0.5623,0.4379,0.8614,"1",4.000,0.000,9,9,9,0,00,08,00,01*6b122f73
#BESTPOSA,USB1_29,0,74.5,FINESTEERING,2163,388996.000,03004120,cdba,16407;SOL_COMPUTED,PSRDIFF,45.00035616092,-72.99884279348,32.5286,-29.6000,WGS84,0.5623,0.4378,0.8614,"1",4.000,0.000,9,9,9,0,00,08,00,01*132516c6
#BESTPOSA,USB1_29,0,74.5,FINESTEERING,2163,388997.000,03004120,cdba,16407;SOL_COMPUTED,PSRDIFF,45.00033122729,-72.99882854180,32.5511,-29.6000,WGS84,0.5623,0.4378,0.8614,"1",4.000,0.000,9,9,9,0,00,08,00,01*1ff43989
#BESTPOSA,USB1_29,0,75.0,FINESTEERING,2163,388998.000,03004120,cdba,16407;SOL_COMPUTED,PSRDIFF,45.00030596268,-72.99881552959,32.5680,-29.6000,WGS84,0.5622,0.4378,0.8614,"1",4.000,0.000,9,9,9,0,00,08,00,01*c6e25a25
#BESTPOSA,USB1_29,0,76.5,FINESTEERING,2163,388999.000,03004120,cdba,16407;SOL_COMPUTED,PSRDIFF,45.00028042976,-72.99880342288,32.5790,-29.6000,WGS84,0.5622,0.4378,0.8614,"1",4.000,0.000,9,9,9,0,00,08,00,01*f4ea8ce3
#BESTPOSA,USB1_29,0,77.0,FINESTEERING,2163,389000.000,03004120,cdba,16407;SOL_COMPUTED,PSRDIFF,45.00025460377,-72.99879252819,32.6059,-29.6000,WGS84,0.5622,0.4378,0.8614,"1",4.000,0.000,9,9,9,0,00,08,00,01*dfd85ca9
#BESTPOSA,USB1_29,0,75.5,FINESTEERING,2163,389001.000,03004120,cdba,16407;SOL_COMPUTED,PSRDIFF,45.00023700168,-72.99876392610,29.7189,-29.6000,WGS84,0.5886,0.5173,1.0171,"1",4.000,0.000,9,8,8,0,00,08,00,01*9d84c771
#BESTPOSA,USB1_29,0,74.0,FINESTEERING,2163,389002.000,03004120,cdba,16407;SOL_COMPUTED,PSRDIFF,45.00021112487,-72.99875457457,29.6440,-29.6000,WGS84,0.5886,0.5173,1.0171,"1",4.000,0.000,9,8,8,0,00,08,00,01*be8f3a77
#BESTPOSA,USB1_29,0,74.0,FINESTEERING,2163,389003.000,03004120,cdba,16407;SOL_COMPUTED,PSRDIFF,45.00018494370,-72.99874662476,29.6412,-29.6000,WGS84,0.5885,0.5173,1.0171,"1",4.000,0.000,9,8,8,0,00,08,00,01*2b674d4e
#BESTPOSA,USB1_29,0,74.5,FINESTEERING,2163,389004.000,03004120,cdba,16407;SOL_COMPUTED,PSRDIFF,45.00015835576,-72.99873988146,29.6084,-29.6000,WGS84,0.5885,0.5173,1.0171,"1",4.000,0.000,9,8,8,0,00,08,00,01*37e53da0
#BESTPOSA,USB1_29,0,77.0,FINESTEERING,2163,389005.000,03004120,cdba,16407;SOL_COMPUTED,PSRDIFF,45.00013199429,-72.99873395884,29.5577,-29.6000,WGS84,0.5884,0.5172,1.0171,"1",4.000,0.000,9,8,8,0,00,08,00,01*4dfda6c7
#BESTPOSA,USB1_29,0,76.0,FINESTEERING,2163,389006.000,03004120,cdba,16407;SOL_COMPUTED,PSRDIFF,45.00010532870,-72.99872952077,29.5324,-29.6000,WGS84,0.5884,0.5172,1.0171,"1",4.000,0.000,9,8,8,0,00,08,00,01*d917950e
#BESTPOSA,USB1_29,0,76.0,FINESTEERING,2163,389007.000,03004120,cdba,16407;SOL_COMPUTED,PSRDIFF,45.00007862565,-72.99872605864,29.5132,-29.6000,WGS84,0.5883,0.5172,1.0171,"1",4.000,0.000,9,8,8,0,00,08,00,01*784853e9
#BESTPOSA,USB1_29,0,76.5,FINESTEERING,2163,389008.000,03004120,cdba,16407;SOL_COMPUTED,PSRDIFF,45.00005201533,-72.99872355018,29.4526,-29.6000,WGS84,0.5883,0.5171,1.0171,"1",4.000,0.000,9,8,8,0,00,08,00,01*bdf3580b
#BESTPOSA,USB1_29,0,78.0,FINESTEERING,2163,389009.000,03004120,cdba,16407;SOL_COMPUTED,PSRDIFF,45.00002518147,-72.99872236498,29.4125,-29.6000,WGS84,0.5882,0.5171,1.0171,"1",4.000,0.000,9,8,8,0,00,08,00,01*f2cb2100
#BESTPOSA,USB1_29,0,74.0,FINESTEERING,2163,389010.000,03004120,cdba,16407;SOL_COMPUTED,PSRDIFF,44.99999835871,-72.99872239086,29.3733,-29.6000,WGS84,0.5882,0.5171,1.0171,"1",4.000,0.000,9,8,8,0,00,08,00,01*20e594f4
#BESTPOSA,USB1_29,0,74.0,FINESTEERING,2163,389011.000,03004120,cdba,16407;SOL_COMPUTED,PSRDIFF,44.99997156017,-72.99872338806,29.3491,-29.6000,WGS84,0.5881,0.5170,1.0171,"1",4.000,0.000,9,8,8,0,00,08,00,01*a74525aa
#BESTPOSA,USB1_29,0,75.0,FINESTEERING,2163,389012.000,03004120,cdba,16407;SOL_COMPUTED,PSRDIFF,44.99994477387,-72.99872572399,29.3085,-29.6000,WGS84,0.5880,0.5170,1.0171,"1",4.000,0.000,9,8,8,0,00,08,00,01*e6df484a
#BESTPOSA,USB1_29,0,75.0,FINESTEERING,2163,389013.000,03004120,cdba,16407;SOL_COMPUTED,PSRDIFF,44.99991806743,-72.99872917771,29.2837,-29.6000,WGS84,0.5880,0.5170,1.0171,"1",4.000,0.000,9,8,8,0,00,08,00,01*87d3fd9c
#BESTPOSA,USB1_29,0,78.5,FINESTEERING,2163,389014.000,03004120,cdba,16407;SOL_COMPUTED,PSRDIFF,44.99989136277,-72.99873374955,29.2593,-29.6000,WGS84,0.5879,0.5170,1.0170,"1",4.000,0.000,9,8,8,0,00,08,00,01*eaeeaa59
#BESTPOSA,USB1_29,0,79.0,FINESTEERING,2163,389015.000,03004120,cdba,16407;SOL_COMPUTED,PSRDIFF,44.99986497275,-72.99873933797,29.2201,-29.6000,WGS84,0.5879,0.5169,1.0170,"1",4.000,0.000,9,8,8,0,00,08,00,01*7e114f51
#BESTPOSA,USB1_29,0,78.0,FINESTEERING,2163,389016.000,03004120,cdba,16407;SOL_COMPUTED,PSRDIFF,44.99983850337,-72.99874619059,29.2247,-29.6000,WGS84,0.5878,0.5169,1.0170,"1",4.000,0.000,9,8,8,0,00,08,00,01*0f0242cd
#BESTPOSA,USB1_29,0,78.0,FINESTEERING,2163,389017.000,03004120,cdba,16407;SOL_COMPUTED,PSRDIFF,44.99981241302,-72.99875403048,29.1665,-29.6000,WGS84,0.5878,0.5169,1.0170,"1",4.000,0.000,9,8,8,0,00,08,00,01*98c5b40b
#BESTPOSA,USB1_29,0,77.5,FINESTEERING,2163,389018.000,03004120,cdba,16407;SOL_COMPUTED,PSRDIFF,44.99978633095,-72.99876304988,29.1341,-29.6000,WGS84,0.5877,0.5168,1.0170,"1",4.000,0.000,9,8,8,0,00,08,00,01*17420224
#BESTPOSA,USB1_29,0,77.5,FINESTEERING,2163,389019.000,03004120,cdba,16407;SOL_COMPUTED,PSRDIFF,44.99976045073,-72.99877326600,29.0970,-29.6000,WGS84,0.5877,0.5168,1.0170,"1",4.000,0.000,9,8,8,0,00,08,00,01*65ca30ad
#BESTPOSA,USB1_29,0,78.5,FINESTEERING,2163,389020.000,03004120,cdba,16407;SOL_COMPUTED,PSRDIFF,44.99973497998,-72.99878434159,29.0587,-29.6000,WGS84,0.5876,0.5168,1.0170,"1",4.000,0.000,9,8,8,0,00,08,00,01*d5b8f9f6
#BESTPOSA,USB1_29,0,76.0,FINESTEERING,2163,389021.000,03004120,cdba,16407;SOL_COMPUTED,PSRDIFF,44.99970962481,-72.99879666715,29.0249,-29.6000,WGS84,0.5876,0.5167,1.0170,"1",4.000,0.000,9,8,8,0,00,08,00,01*56a1ce50
#BESTPOSA,USB1_29,0,74.0,FINESTEERING,2163,389022.000,03004120,cdba,16407;SOL_COMPUTED,PSRDIFF,44.99968452740,-72.99881010125,28.9896,-29.6000,WGS84,0.5875,0.5167,1.0170,"1",4.000,0.000,9,8,8,0,00,08,00,01*f89531cb
#BESTPOSA,USB1_29,0,74.0,FINESTEERING,2163,389023.000,03004120,cdba,16407;SOL_COMPUTED,PSRDIFF,44.99965968501,-72.99882451101,28.9608,-29.6000,WGS84,0.5875,0.5167,1.0170,"1",4.000,0.000,9,8,8,0,00,08,00,01*7007aaf1
#BESTPOSA,USB1_29,0,73.0,FINESTEERING,2163,389024.000,03004120,cdba,16407;SOL_COMPUTED,PSRDIFF,44.99963519944,-72.99884031972,28.9459,-29.6000,WGS84,0.5874,0.5166,1.0170,"1",4.000,0.000,9,8,8,0,00,08,00,01*a4231171
#BESTPOSA,USB1_29,0,73.0,FINESTEERING,2163,389025.000,03004120,cdba,16407;SOL_COMPUTED,PSRDIFF,44.99961117523,-72.99885685668,28.9194,-29.6000,WGS84,0.5874,0.5166,1.0170,"1",4.000,0.000,9,8,8,0,00,08,00,01*cae9b67f
#BESTPOSA,USB1_29,0,75.0,FINESTEERING,2163,389026.000,03004120,cdba,16407;SOL_COMPUTED,PSRDIFF,44.99958723219,-72.99887462139,28.9303,-29.6000,WGS84,0.5873,0.5166,1.0170,"1",4.000,0.000,9,8,8,0,00,08,00,01*afde2fe1
#BESTPOSA,USB1_29,0,75.0,FINESTEERING,2163,389027.000,03004120,cdba,16407;SOL_COMPUTED,PSRDIFF,44.99956381484,-72.99889346758,28.9180,-29.6000,WGS84,0.5873,0.5166,1.0170,"1",4.000,0.000,9,8,8,0,00,08,00,01*d0fe311c
#BESTPOSA,USB1_29,0,76.0,FINESTEERING,2163,389028.000,03004120,cdba,16407;SOL_COMPUTED,PSRDIFF,44.99954081588,-72.99891319280,28.8836,-29.6000,WGS84,0.5872,0.5165,1.0169,"1",4.000,0.000,9,8,8,0,00,08,00,01*ae2f9b91
#BESTPOSA,USB1_29,0,77.5,FINESTEERING,2163,389029.000,03004120,cdba,16407;SOL_COMPUTED,PSRDIFF,44.99951808676,-72.99893402750,28.8927,-29.6000,WGS84,0.5872,0.5165,1.0169,"1",4.000,0.000,9,8,8,0,00,08,00,01*1b0e25d0
#BESTPOSA,USB1_29,0,76.0,FINESTEERING,2163,389030.000,03004120,cdba,16407;SOL_COMPUTED,PSRDIFF,44.99949594371,-72.99895572080,28.8852,-29.6000,WGS84,0.5871,0.5165,1.0169,"1",4.000,0.000,9,8,8,0,00,08,00,01*7e7a2d9f
#BESTPOSA,USB1_29,0,76.0,FINESTEERING,2163,389031.000,03004120,cdba,16407;SOL_COMPUTED,PSRDIFF,44.99947427927,-72.99897840699,28.8785,-29.6000,WGS84,0.5871,0.5164,1.0169,"1",4.000,0.000,9,8,8,0,00,08,00,01*630c4247
#BESTPOSA,USB1_29,0,73.5,FINESTEERING,2163,389032.000,03004120,cdba,16407;SOL_COMPUTED,PSRDIFF,44.99945301755,-72.99900202160,28.8865,-29.6000,WGS84,0.5870,0.5164,1.0169,"1",4.000,0.000,9,8,8,0,00,08,00,01*450d1f96
#BESTPOSA,USB1_29,0,73.5,FINESTEERING,2163,389033.000,03004120,cdba,16407;SOL_COMPUTED,PSRDIFF,44.99943237603,-72.99902629488,28.8628,-29.6000,WGS84,0.5870,0.5164,1.0169,"1",4.000,0.000,9,8,8,0,00,08,00,01*b9c40acf
#BESTPOSA,USB1_29,0,73.0,FINESTEERING,2163,389034.000,03004120,cdba,16407;SOL_COMPUTED,PSRDIFF,44.99941217109,-72.99905176092,28.8552,-29.6000,WGS84,0.5869,0.5164,1.0169,"1",4.000,0.000,9,8,8,0,00,08,00,01*07470200
#BESTPOSA,USB1_29,0,73.0,FINESTEERING,2163,389035.000,03004120,cdba,16407;SOL_COMPUTED,PSRDIFF,44.99939262316,-72.99907793037,28.8507,-29.6000,WGS84,0.5869,0.5163,1.0169,"1",4.000,0.000,9,8,8,0,00,08,00,01*760b5439
#BESTPOSA,USB1_29,0,76.0,FINESTEERING,2163,389036.000,03004120,cdba,16407;SOL_COMPUTED,PSRDIFF,44.99937361511,-72.99910482662,28.8342,-29.6000,WGS84,0.5868,0.5163,1.0170,"1",4.000,0.000,9,8,8,0,00,08,00,01*ecaf031a
#BESTPOSA,USB1_29,0,77.0,FINESTEERING,2163,389037.000,03004120,cdba,16407;SOL_COMPUTED,PSRDIFF,44.99935509172,-72.99913261679,28.8251,-29.6000,WGS84,0.5868,0.5163,1.0170,"1",4.000,0.000,9,8,8,0,00,08,00,01*9b187621
#BESTPOSA,USB1_29,0,78.0,FINESTEERING,2163,389038.000,03004120,cdba,16407;SOL_COMPUTED,PSRDIFF,44.99932468645,-72.99915221137,27.1167,-29.6000,WGS84,0.6456,0.5347,1.0698,"1",4.000,0.000,9,7,7,0,00,08,00,01*0f0605bb
#BESTPOSA,USB1_29,0,77.5,FINESTEERING,2163,389039.000,03004120,cdba,16407;SOL_COMPUTED,PSRDIFF,44.99930737275,-72.99918125238,27.0647,-29.6000,WGS84,0.6456,0.5346,1.0698,"1",4.000,0.000,9,7,7,0,00,08,00,01*fc43f1aa
#BESTPOSA,USB1_29,0,77.5,FINESTEERING,2163,389040.000,03004120,cdba,16407;SOL_COMPUTED,PSRDIFF,44.99929053881,-72.99921126742,27.0593,-29.6000,WGS84,0.6456,0.5346,1.0698,"1",4.000,0.000,9,7,7,0,00,08,00,01*0b3c7f9b
#BESTPOSA,USB1_29,0,77.0,FINESTEERING,2163,389041.000,03004120,cdba,16407;SOL_COMPUTED,PSRDIFF,44.99927454549,-72.99924172117,27.0195,-29.6000,WGS84,0.6455,0.5346,1.0698,"1",4.000,0.000,9,7,7,0,00,08,00,01*465444e9
#BESTPOSA,USB1_29,0,76.0,FINESTEERING,2163,389042.000,03004120,cdba,16407;SOL_COMPUTED,PSRDIFF,44.99925901474,-72.99927303976,26.9970,-29.6000,WGS84,0.6455,0.5345,1.0698,"1",4.000,0.000,9,7,7,0,00,08,00,01*fda60423
#BESTPOSA,USB1_29,0,76.0,FINESTEERING,2163,389043.000,03004120,cdba,16407;SOL_COMPUTED,PSRDIFF,44.99924426408,-72.99930504327,26.9661,-29.6000,WGS84,0.6455,0.5345,1.0698,"1",4.000,0.000,9,7,7,0,00,08,00,01*a41ae3fc
#BESTPOSA,USB1_29,0,77.0,FINESTEERING,2163,389044.000,03004120,cdba,16407;SOL_COMPUTED,PSRDIFF,44.99923026788,-72.99933744056,26.9315,-29.6000,WGS84,0.6454,0.5345,1.0697,"1",4.000,0.000,9,7,7,0,00,08,00,01*c6b70ad2
#BESTPOSA,USB1_29,0,78.0,FINESTEERING,2163,389045.000,03004120,cdba,16407;SOL_COMPUTED,PSRDIFF,44.99921685351,-72.99937058746,26.8842,-29.6000,WGS84,0.6454,0.5345,1.0697,"1",4.000,0.000,9,7,7,0,00,08,00,01*0c4bfd4b
#BESTPOSA,USB1_29,0,78.0,FINESTEERING,2163,389046.000,03004120,cdba,16407;SOL_COMPUTED,PSRDIFF,44.99920417731,-72.99940411666,26.8337,-29.6000,WGS84,0.6454,0.5344,1.0697,"1",4.000,0.000,9,7,7,0,00,08,00,01*190304a0
#BESTPOSA,USB1_29,0,77.0,FINESTEERING,2163,389047.000,03004120,cdba,16407;SOL_COMPUTED,PSRDIFF,44.99919218303,-72.99943839497,26.7946,-29.6000,WGS84,0.6454,0.5344,1.0697,"1",4.000,0.000,9,7,7,0,00,08,00,01*dc8b4404
#BESTPOSA,USB1_29,0,75.5,FINESTEERING,2163,389048.000,03004120,cdba,16407;SOL_COMPUTED,PSRDIFF,44.99918092768,-72.99947306664,26.7781,-29.6000,WGS84,0.6453,0.5344,1.0697,"1",4.000,0.000,9,7,7,0,00,08,00,01*51fdcf7d
#BESTPOSA,USB1_29,0,75.5,FINESTEERING,2163,389049.000,03004120,cdba,16407;SOL_COMPUTED,PSRDIFF,44.99917045607,-72.99950817314,26.7209,-29.6000,WGS84,0.6453,0.5344,1.0697,"1",4.000,0.000,9,7,7,0,00,08,00,01*da0587df
#BESTPOSA,USB1_29,0,72.5,FINESTEERING,2163,389050.000,03004120,cdba,16407;SOL_COMPUTED,PSRDIFF,44.99916074261,-72.99954351564,26.6911,-29.6000,WGS84,0.6453,0.5343,1.0697,"1",4.000,0.000,9,7,7,0,00,08,00,01*7aa1cd2d
#BESTPOSA,USB1_29,0,72.5,FINESTEERING,2163,389051.000,03004120,cdba,16407;SOL_COMPUTED,PSRDIFF,44.99915177512,-72.99957952956,26.6627,-29.6000,WGS84,0.6452,0.5343,1.0697,"1",4.000,0.000,9,7,7,0,00,08,00,01*ec57b70c
#BESTPOSA,USB1_29,0,75.0,FINESTEERING,2163,389052.000,03004120,cdba,16407;SOL_COMPUTED,PSRDIFF,44.99914355571,-72.99961559444,26.5846,-29.6000,WGS84,0.6452,0.5343,1.0696,"1",4.000,0.000,9,7,7,0,00,08,00,01*d9b48261
#BESTPOSA,USB1_29,0,75.0,FINESTEERING,2163,389053.000,03004120,cdba,16407;SOL_COMPUTED,PSRDIFF,44.99913612942,-72.99965229170,26.5467,-29.6000,WGS84,0.6452,0.5342,1.0696,"1",4.000,0.000,9,7,7,0,00,08,00,01*bb519690
#BESTPOSA,USB1_29,0,77.0,FINESTEERING,2163,389054.000,03004120,cdba,16407;SOL_COMPUTED,PSRDIFF,44.99912949252,-72.99968922244,26.4944,-29.6000,WGS84,0.6451,0.5342,1.0696,"1",4.000,0.000,9,7,7,0,00,08,00,01*07bca8e8
#BESTPOSA,USB1_29,0,75.0,FINESTEERING,2163,389055.000,03004120,cdba,16407;SOL_COMPUTED,PSRDIFF,44.99912362905,-72.99972634260,26.4476,-29.6000,WGS84,0.6451,0.5342,1.0696,"1",4.000,0.000,9,7,7,0,00,08,00,01*90b3d6ca
#BESTPOSA,USB1_29,0,75.0,FINESTEERING,2163,389056.000,03004120,cdba,16407;SOL_COMPUTED,PSRDIFF,44.99911859103,-72.99976366763,26.3966,-29.6000,WGS84,0.6451,0.5342,1.0696,"1",4.000,0.000,9,7,7,0,00,08,00,01*f184cae7
#BESTPOSA,USB1_29,0,77.0,FINESTEERING,2163,389057.000,03004120,cdba,16407;SOL_COMPUTED,PSRDIFF,44.99911436731,-72.99980123475,26.3546,-29.6000,WGS84,0.6451,0.5341,1.0696,"1",4.000,0.000,9,7,7,0,00,08,00,01*a586a924
#BESTPOSA,USB1_29,0,78.0,FINESTEERING,2163,389058.000,03004120,cdba,16407;SOL_COMPUTED,PSRDIFF,44.99911074353,-72.99983894762,26.3161,-29.6000,WGS84,0.6450,0.5341,1.0695,"1",4.000,0.000,9,7,7,0,00,08,00,01*84001115
#BESTPOSA,USB1_29,0,76.5,FINESTEERING,2163,389059.000,03004120,cdba,16407;SOL_COMPUTED,PSRDIFF,44.99910820987,-72.99987682795,26.2403,-29.6000,WGS84,0.6450,0.5341,1.0695,"1",4.000,0.000,9,7,7,0,00,08,00,01*b0884ee3
#BESTPOSA,USB1_29,0,76.5,FINESTEERING,2163,389060.000,03004120,cdba,16407;SOL_COMPUTED,PSRDIFF,44.99910638162,-72.99991473288,26.1998,-29.6000,WGS84,0.6450,0.5340,1.0695,"1",4.000,0.000,9,7,7,0,00,08,00,01*ef1fa9aa
#BESTPOSA,USB1_29,0,77.0,FINESTEERING,2163,389061.000,03004120,cdba,16407;SOL_COMPUTED,PSRDIFF,44.99910523573,-72.99995290080,26.1756,-29.6000,WGS84,0.6449,0.5340,1.0695,"1",4.000,0.000,9,7,7,0,00,08,00,01*aa679d87
#BESTPOSA,USB1_29,0,74.0,FINESTEERING,2163,389062.000,03004120,cdba,16407;SOL_COMPUTED,PSRDIFF,44.99910488637,-72.99999103614,26.1420,-29.6000,WGS84,0.6449,0.5340,1.0695,"1",4.000,0.000,9,7,7,0,00,08,00,01*7398e3ef
#BESTPOSA,USB1_29,0,74.0,FINESTEERING,2163,389063.000,03004120,cdba,16407;SOL_COMPUTED,PSRDIFF,44.99910558114,-73.00002915552,26.0751,-29.6000,WGS84,0.6449,0.5340,1.0695,"1",4.000,0.000,9,7,7,0,00,08,00,01*f8bdcb23
#BESTPOSA,USB1_29,0,75.0,FINESTEERING,2163,389064.000,03004120,cdba,16407;SOL_COMPUTED,PSRDIFF,44.99910691368,-73.00006727013,26.0471,-29.6000,WGS84,0.6449,0.5339,1.0694,"1",4.000,0.000,9,7,7,0,00,08,00,01*bc931ba2
#BESTPOSA,USB1_29,0,75.5,FINESTEERING,2163,389065.000,03004120,cdba,16407;SOL_COMPUTED,PSRDIFF,44.99910909431,-73.00010523635,26.0032,-29.6000,WGS84,0.6448,0.5339,1.0694,"1",4.000,0.000,9,7,7,0,00,08,00,01*7e5e177b
#BESTPOSA,USB1_29,0,73.5,FINESTEERING,2163,389066.000,03004120,cdba,16407;SOL_COMPUTED,PSRDIFF,44.99911208111,-73.00014301963,25.9576,-29.6000,WGS84,0.6448,0.5339,1.0694,"1",4.000,0.000,9,7,7,0,00,08,00,01*6a829f7c
#BESTPOSA,USB1_29,0,73.5,FINESTEERING,2163,389067.000,03004120,cdba,16407;SOL_COMPUTED,PSRDIFF,44.99911586243,-73.00018086146,25.9026,-29.6000,WGS84,0.6448,0.5339,1.0694,"1",4.000,0.000,9,7,7,0,00,08,00,01*05be809a
#BESTPOSA,USB1_29,0,78.0,FINESTEERING,2163,389068.000,03004120,cdba,16407;SOL_COMPUTED,PSRDIFF,44.99912046128,-73.00021854895,25.8614,-29.6000,WGS84,0.6448,0.5338,1.0694,"1",4.000,0.000,9,7,7,0,00,08,00,01*ed6fda15
#BESTPOSA,USB1_29,0,77.0,FINESTEERING,2163,389069.000,03004120,cdba,16407;SOL_COMPUTED,PSRDIFF,44.99912584792,-73.00025587494,25.8121,-29.6000,WGS84,0.6447,0.5338,1.0694,"1",4.000,0.000,9,7,7,0,00,08,00,01*86c517cf
#BESTPOSA,USB1_29,0,77.0,FINESTEERING,2163,389070.000,03004120,cdba,16407;SOL_COMPUTED,PSRDIFF,44.99913192113,-73.00029306478,25.7840,-29.6000,WGS84,0.6447,0.5338,1.0694,"1",4.000,0.000,9,7,7,0,00,08,00,01*f2750d73
#BESTPOSA,USB1_29,0,78.5,FINESTEERING,2163,389071.000,03004120,cdba,16407;SOL_COMPUTED,PSRDIFF,44.99913897370,-73.00032996804,25.7498,-29.6000,WGS84,0.6447,0.5337,1.0694,"1",4.000,0.000,9,7,7,0,00,08,00,01*e30cfd49
#BESTPOSA,USB1_29,0,76.5,FINESTEERING,2163,389072.000,03004120,cdba,16407;SOL_COMPUTED,PSRDIFF,44.99914664108,-73.00036653094,25.7033,-29.6000,WGS84,0.6446,0.5337,1.0694,"1",4.000,0.000,9,7,7,0,00,08,00,01*43eff510
#BESTPOSA,USB1_29,0,76.5,FINESTEERING,2163,389073.000,03004120,cdba,16407;SOL_COMPUTED,PSRDIFF,44.99915509716,-73.00040270854,25.6477,-29.6000,WGS84,0.6446,0.5337,1.0693,"1",4.000,0.000,9,7,7,0,00,08,00,01*37ca9939
#BESTPOSA,USB1_29,0,76.5,FINESTEERING,2163,389074.000,03004120,cdba,16407;SOL_COMPUTED,PSRDIFF,44.99916423492,-73.00043865012,25.6397,-29.6000,WGS84,0.6446,0.5337,1.0693,"1",4.000,0.000,9,7,7,0,00,08,00,01*c0f2939f
#BESTPOSA,USB1_29,0,77.0,FINESTEERING,2163,389075.000,03004120,cdba,16407;SOL_COMPUTED,PSRDIFF,44.99917435600,-73.00047415179,25.5938,-29.6000,WGS84,0.6446,0.5336,1.0693,"1",4.000,0.000,9,7,7,0,00,08,00,01*5501d1f9
#BESTPOSA,USB1_29,0,78.0,FINESTEERING,2163,389076.000,03004120,cdba,16407;SOL_COMPUTED,PSRDIFF,44.99918503865,-73.00050921891,25.5449,-29.6000,WGS84,0.6445,0.5336,1.0693,"1",4.000,0.000,9,7,7,0,00,08,00,01*45e11036
#BESTPOSA,USB1_29,0,78.0,FINESTEERING,2163,389077.000,03004120,cdba,16407;SOL_COMPUTED,PSRDIFF,44.99919660851,-73.00054365895,25.5083,-29.6000,WGS84,0.6445,0.5336,1.0693,"1",4.000,0.000,9,7,7,0,00,08,00,01*9789573e
#BESTPOSA,USB1_29,0,77.0,FINESTEERING,2163,389078.000,03004120,cdba,16407;SOL_COMPUTED,PSRDIFF,44.99920891715,-73.00057776908,25.4528,-29.6000,WGS84,0.6445,0.5335,1.0692,"1",4.000,0.000,9,7,7,0,00,08,00,01*ced067aa
#BESTPOSA,USB1_29,0,77.0,FINESTEERING,2163,389079.000,03004120,cdba,16407;SOL_COMPUTED,PSRDIFF,44.99922175118,-73.00061130818,25.4093,-29.6000,WGS84,0.6444,0.5335,1.0692,"1",4.000,0.000,9,7,7,0,00,08,00,01*c7711e1f
#BESTPOSA,USB1_29,0,75.5,FINESTEERING,2163,389080.000,03004120,cdba,16407;SOL_COMPUTED,PSRDIFF,44.99923539873,-73.00064423903,25.3620,-29.6000,WGS84,0.6444,0.5335,1.0692,"1",4.000,0.000,9,7,7,0,00,08,00,01*ba295023
#BESTPOSA,USB1_29,0,75.5,FINESTEERING,2163,389081.000,03004120,cdba,16407;SOL_COMPUTED,PSRDIFF,44.99924967542,-73.00067655056,25.3244,-29.6000,WGS84,0.6444,0.5335,1.0692,"1",4.000,0.000,9,7,7,0,00,08,00,01*c62304c6
#BESTPOSA,USB1_29,0,74.5,FINESTEERING,2163,389082.000,03004120,cdba,16407;SOL_COMPUTED,PSRDIFF,44.99926472185,-73.00070830020,25.2745,-29.6000,WGS84,0.6443,0.5334,1.0692,"1",4.000,0.000,9,7,7,0,00,08,00,01*51c9ff3e
#BESTPOSA,USB1_29,0,74.5,FINESTEERING,2163,389083.000,03004120,cdba,16407;SOL_COMPUTED,PSRDIFF,44.99928049879,-73.00073932469,25.2346,-29.6000,WGS84,0.6443,0.5334,1.0692,"1",4.000,0.000,9,7,7,0,00,08,00,01*9c8b262d
#BESTPOSA,USB1_29,0,74.5,FINESTEERING,2163,389084.000,03004120,cdba,16407;SOL_COMPUTED,PSRDIFF,44.99929676445,-73.00076986385,25.1798,-29.6000,WGS84,0.6443,0.5334,1.0692,"1",4.000,0.000,9,7,7,0,00,08,00,01*c92e670d
#BESTPOSA,USB1_29,0,72.5,FINESTEERING,2163,389085.000,03004120,cdba,16407;SOL_COMPUTED,PSRDIFF,44.99931377389,-73.00079942494,25.1124,-29.6000,WGS84,0.6443,0.5334,1.0691,"1",4.000,0.000,9,7,7,0,00,08,00,01*38d94ee7
#BESTPOSA,USB1_29,0,72.5,FINESTEERING,2163,389086.000,03004120,cdba,16407;SOL_COMPUTED,PSRDIFF,44.99933133085,-73.00082834729,25.0598,-29.6000,WGS84,0.6442,0.5333,1.0691,"1",4.000,0.000,9,7,7,0,00,08,00,01*a24e1c1e
#BESTPOSA,USB1_29,0,73.0,FINESTEERING,2163,389087.000,03004120,cdba,16407;SOL_COMPUTED,PSRDIFF,44.99934959616,-73.00085651736,25.0159,-29.6000,WGS84,0.6442,0.5333,1.0691,"1",4.000,0.000,9,7,7,0,00,08,00,01*cd4dda0c
#BESTPOSA,USB1_29,0,75.5,FINESTEERING,2163,389088.000,03004120,cdba,16407;SOL_COMPUTED,PSRDIFF,44.99936846339,-73.00088392063,24.9446,-29.6000,WGS84,0.6442,0.5333,1.0691,"1",4.000,0.000,9,7,7,0,00,08,00,01*6ba28be2
#BESTPOSA,USB1_29,0,76.0,FINESTEERING,2163,389089.000,03004120,cdba,16407;SOL_COMPUTED,PSRDIFF,44.99938782807,-73.00091054459,24.8835,-29.6000,WGS84,0.6442,0.5332,1.0691,"1",4.000,0.000,9,7,7,0,00,08,00,01*e28b42a3
#BESTPOSA,USB1_29,0,75.5,FINESTEERING,2163,389090.000,03004120,cdba,16407;SOL_COMPUTED,PSRDIFF,44.99940772412,-73.00093623268,24.8323,-29.6000,WGS84,0.6441,0.5332,1.0691,"1",4.000,0.000,9,7,7,0,00,08,00,01*f7ac02eb
#BESTPOSA,USB1_29,0,75.5,FINESTEERING,2163,389091.000,03004120,cdba,16407;SOL_COMPUTED,PSRDIFF,44.99942817742,-73.00096125554,24.7799,-29.6000,WGS84,0.6441,0.5332,1.0691,"1",4.000,0.000,9,7,7,0,00,08,00,01*3581b803
#BESTPOSA,USB1_29,0,78.5,FINESTEERING,2163,389092.000,03004120,cdba,16407;SOL_COMPUTED,PSRDIFF,44.99945594170,-73.00097217724,27.1204,-29.6000,WGS84,0.6558,0.5588,1.1379,"1",4.000,0.000,9,6,6,0,00,08,00,01*fd226ca2
#BESTPOSA,USB1_29,0,77.5,FINESTEERING,2163,389093.000,03004120,cdba,16407;SOL_COMPUTED,PSRDIFF,44.99947757551,-73.00099528250,27.0750,-29.6000,WGS84,0.6558,0.5588,1.1378,"1",4.000,0.000,9,6,6,0,00,08,00,01*21c13884
#BESTPOSA,USB1_29,0,77.5,FINESTEERING,2163,389094.000,03004120,cdba,16407;SOL_COMPUTED,PSRDIFF,44.99949952708,-73.00101738009,27.0418,-29.6000,WGS84,0.6558,0.5588,1.1377,"1",4.000,0.000,9,6,6,0,00,08,00,01*16cf4b3f
#BESTPOSA,USB1_29,0,74.5,FINESTEERING,2163,389095.000,03004120,cdba,16407;SOL_COMPUTED,PSRDIFF,44.99952199911,-73.00103871453,27.0033,-29.6000,WGS84,0.6558,0.5588,1.1377,"1",4.000,0.000,9,6,6,0,00,08,00,01*9f4ac300
#BESTPOSA,USB1_29,0,74.5,FINESTEERING,2163,389096.000,03004120,cdba,16407;SOL_COMPUTED,PSRDIFF,44.99954479055,-73.00105902863,26.9824,-29.6000,WGS84,0.6557,0.5587,1.1376,"1",4.000,0.000,9,6,6,0,00,08,00,01*c2f1944d
#BESTPOSA,USB1_29,0,77.0,FINESTEERING,2163,389097.000,03004120,cdba,16407;SOL_COMPUTED,PSRDIFF,44.99956805795,-73.00107837783,26.9478,-29.6000,WGS84,0.6557,0.5587,1.1375,"1",4.000,0.000,9,6,6,0,00,08,00,01*d213b199
#BESTPOSA,USB1_29,0,77.0,FINESTEERING,2163,389098.000,03004120,cdba,16407;SOL_COMPUTED,PSRDIFF,44.99959176182,-73.00109657835,26.9448,-29.6000,WGS84,0.6557,0.5587,1.1375,"1",4.000,0.000,9,6,6,0,00,08,00,01*c3f14917
#BESTPOSA,USB1_29,0,78.0,FINESTEERING,2163,389099.000,03004120,cdba,16407;SOL_COMPUTED,PSRDIFF,44.99961586164,-73.00111399684,26.9078,-29.6000,WGS84,0.6557,0.5587,1.1374,"1",4.000,0.000,9,6,6,0,00,08,00,01*4f506b59
#BESTPOSA,USB1_29,0,76.5,FINESTEERING,2163,389100.000,03004120,cdba,16407;SOL_COMPUTED,PSRDIFF,44.99964035599,-73.00113022445,26.8699,-29.6000,WGS84,0.6557,0.5587,1.1374,"1",4.000,0.000,9,6,6,0,00,08,00,01*07e1c80f
#BESTPOSA,USB1_29,0,76.5,FINESTEERING,2163,389101.000,03004120,cdba,16407;SOL_COMPUTED,PSRDIFF,44.99966508504,-73.00114549924,26.8391,-29.6000,WGS84,0.6557,0.5587,1.1373,"1",4.000,0.000,9,6,6,0,00,08,00,01*63861fee
#BESTPOSA,USB1_29,0,74.5,FINESTEERING,2163,389102.000,03004120,cdba,16407;SOL_COMPUTED,PSRDIFF,44.99969021123,-73.00115954822,26.8104,-29.6000,WGS84,0.6557,0.5586,1.1372,"1",4.000,0.000,9,6,6,0,00,08,00,01*dc117fc4
#BESTPOSA,USB1_29,0,74.5,FINESTEERING,2163,389103.000,03004120,cdba,16407;SOL_COMPUTED,PSRDIFF,44.99971565102,-73.00117270405,26.7742,-29.6000,WGS84,0.6557,0.5586,1.1372,"1",4.000,0.000,9,6,6,0,00,08,00,01*5d7f58d7
#BESTPOSA,USB1_29,0,78.5,FINESTEERING,2163,389104.000,03004120,cdba,16407;SOL_COMPUTED,PSRDIFF,44.99974131855,-73.00118461534,26.7476,-29.6000,WGS84,0.6557,0.5586,1.1371,"1",4.000,0.000,9,6,6,0,00,08,00,01*56ee80fc
#BESTPOSA,USB1_29,0,78.0,FINESTEERING,2163,389105.000,03004120,cdba,16407;SOL_COMPUTED,PSRDIFF,44.99976727185,-73.00119544691,26.6956,-29.6000,WGS84,0.6557,0.5586,1.1371,"1",4.000,0.000,9,6,6,0,00,08,00,01*c82e83bd
#BESTPOSA,USB1_29,0,77.0,FINESTEERING,2163,389106.000,03004120,cdba,16407;SOL_COMPUTED,PSRDIFF,44.99979347059,-73.00120523252,26.6395,-29.6000,WGS84,0.6557,0.5586,1.1370,"1",4.000,0.000,9,6,6,0,00,08,00,01*731e260e
#BESTPOSA,USB1_29,0,77.0,FINESTEERING,2163,389107.000,03004120,cdba,16407;SOL_COMPUTED,PSRDIFF,44.99981984722,-73.00121383332,26.5885,-29.6000,WGS84,0.6557,0.5586,1.1369,"1",4.000,0.000,9,6,6,0,00,08,00,01*73e482ca
#BESTPOSA,USB1_29,0,76.5,FINESTEERING,2163,389108.000,03004120,cdba,16407;SOL_COMPUTED,PSRDIFF,44.99984632291,-73.00122138296,26.5645,-29.6000,WGS84,0.6557,0.5586,1.1369,"1",4.000,0.000,9,6,6,0,00,08,00,01*532f17be
#BESTPOSA,USB1_29,0,75.0,FINESTEERING,2163,389109.000,03004120,cdba,16407;SOL_COMPUTED,PSRDIFF,44.99987303036,-73.00122775432,26.5214,-29.6000,WGS84,0.6557,0.5585,1.1368,"1",4.000,0.000,9,6,6,0,00,08,00,01*0ec59d92
#BESTPOSA,USB1_29,0,75.0,FINESTEERING,2163,389110.000,03004120,cdba,16407;SOL_COMPUTED,PSRDIFF,44.99989983718,-73.00123299702,26.4550,-29.6000,WGS84,0.6557,0.5585,1.1368,"1",4.000,0.000,9,6,6,0,00,08,00,01*7eaa2c29
#BESTPOSA,USB1_29,0,75.5,FINESTEERING,2163,389111.000,03004120,cdba,16407;SOL_COMPUTED,PSRDIFF,44.99992680347,-73.00123705185,26.4163,-29.6000,WGS84,0.6557,0.5585,1.1367,"1",4.000,0.000,9,6,6,0,00,08,00,01*dcaa9814
#BESTPOSA,USB1_29,0,76.0,FINESTEERING,2163,389112.000,03004120,cdba,16407;SOL_COMPUTED,PSRDIFF,44.99995381092,-73.00124006201,26.3965,-29.6000,WGS84,0.6557,0.5585,1.1366,"1",4.000,0.000,9,6,6,0,00,08,00,01*ba832473
#BESTPOSA,USB1_29,0,78.5,FINESTEERING,2163,389113.000,03004120,cdba,16407;SOL_COMPUTED,PSRDIFF,44.99998085279,-73.00124194969,26.3357,-29.6000,WGS84,0.6557,0.5585,1.1366,"1",4.000,0.000,9,6,6,0,00,08,00,01*67e89c92
#BESTPOSA,USB1_29,0,77.0,FINESTEERING,2163,389114.000,03004120,cdba,16407;SOL_COMPUTED,PSRDIFF,45.00000796872,-73.00124261880,26.2791,-29.6000,WGS84,0.6557,0.5585,1.1366,"1",4.000,0.000,9,6,6,0,00,08,00,01*7cc7d23c
#BESTPOSA,USB1_29,0,77.0,FINESTEERING,2163,389115.000,03004120,cdba,16407;SOL_COMPUTED,PSRDIFF,45.00003498075,-73.00124201740,26.2268,-29.6000,WGS84,0.6557,0.5585,1.1365,"1",4.000,0.000,9,6,6,0,00,08,00,01*81a6b5ef
#BESTPOSA,USB1_29,0,78.0,FINESTEERING,2163,389116.000,03004120,cdba,16407;SOL_COMPUTED,PSRDIFF,45.00006212174,-73.00124029249,26.1513,-29.6000,WGS84,0.6557,0.5585,1.1364,"1",4.000,0.000,9,6,6,0,00,08,00,01*f4befe4e
#BESTPOSA,USB1_29,0,78.0,FINESTEERING,2163,389117.000,03004120,cdba,16407;SOL_COMPUTED,PSRDIFF,45.00008918814,-73.00123741264,26.0989,-29.6000,WGS84,0.6557,0.5584,1.1364,"1",4.000,0.000,9,6,6,0,00,08,00,01*8aec5ec7
#BESTPOSA,USB1_29,0,78.0,FINESTEERING,2163,389118.000,03004120,cdba,16407;SOL_COMPUTED,PSRDIFF,45.00011620845,-73.00123323308,26.0342,-29.6000,WGS84,0.6557,0.5584,1.1363,"1",4.000,0.000,9,6,6,0,00,08,00,01*56f0fff2
#BESTPOSA,USB1_29,0,78.0,FINESTEERING,2163,389119.000,03004120,cdba,16407;SOL_COMPUTED,PSRDIFF,45.00014306097,-73.00122815278,25.9715,-29.6000,WGS84,0.6557,0.5584,1.1363,"1",4.000,0.000,9,6,6,0,00,08,00,01*f9f15c89
#BESTPOSA,USB1_29,0,80.0,FINESTEERING,2163,389120.000,03004120,cdba,16407;SOL_COMPUTED,PSRDIFF,45.00016982857,-73.00122181132,25.9356,-29.6000,WGS84,0.6557,0.5584,1.1362,"1",4.000,0.000,9,6,6,0,00,08,00,01*e7f4e93f
#BESTPOSA,USB1_29,0,79.5,FINESTEERING,2163,389121.000,03004120,cdba,16407;SOL_COMPUTED,PSRDIFF,45.00019652539,-73.00121423347,25.8492,-29.6000,WGS84,0.6557,0.5584,1.1361,"1",4.000,0.000,9,6,6,0,00,08,00,01*78938d7b
#BESTPOSA,USB1_29,0,76.5,FINESTEERING,2163,389122.000,03004120,cdba,16407;SOL_COMPUTED,PSRDIFF,45.00022292415,-73.00120585719,25.8035,-29.6000,WGS84,0.6557,0.5584,1.1361,"1",4.000,0.000,9,6,6,0,00,08,00,01*45ca99b8
#BESTPOSA,USB1_29,0,76.5,FINESTEERING,2163,389123.000,03004120,cdba,16407;SOL_COMPUTED,PSRDIFF,45.00024939049,-73.00119612126,25.7171,-29.6000,WGS84,0.6557,0.5584,1.1360,"1",4.000,0.000,9,6,6,0,00,08,00,01*681ef64d
#BESTPOSA,USB1_29,0,77.5,FINESTEERING,2163,389124.000,03004120,cdba,16407;SOL_COMPUTED,PSRDIFF,45.00027533375,-73.00118533194,25.6695,-29.6000,WGS84,0.6557,0.5583,1.1360,"1",4.000,0.000,9,6,6,0,00,08,00,01*64aaa4c4
#BESTPOSA,USB1_29,0,77.5,FINESTEERING,2163,389125.000,03004120,cdba,16407;SOL_COMPUTED,PSRDIFF,45.00030128483,-73.00117347068,25.5936,-29.6000,WGS84,0.6557,0.5583,1.1359,"1",4.000,0.000,9,6,6,0,00,08,00,01*93d8b05e
#BESTPOSA,USB1_29,0,78.5,FINESTEERING,2163,389126.000,03004120,cdba,16407;SOL_COMPUTED,PSRDIFF,45.00032672860,-73.00116064157,25.5417,-29.6000,WGS84,0.6557,0.5583,1.1359,"1",4.000,0.000,9,6,6,0,00,08,00,01*e5eacbb4
#BESTPOSA,USB1_29,0,77.5,FINESTEERING,2163,389127.000,03004120,cdba,16407;SOL_COMPUTED,PSRDIFF,45.00035213534,-73.00114664740,25.4707,-29.6000,WGS84,0.6557,0.5583,1.1358,"1",4.000,0.000,9,6,6,0,00,08,00,01*856e591d
#BESTPOSA,USB1_29,0,76.0,FINESTEERING,2163,389128.000,03004120,cdba,16407;SOL_COMPUTED,PSRDIFF,45.00037713932,-73.00113159770,25.3890,-29.6000,WGS84,0.6556,0.5583,1.1357,"1",4.000,0.000,9,6,6,0,00,08,00,01*6ee6b975
#BESTPOSA,USB1_29,0,76.0,FINESTEERING,2163,389129.000,03004120,cdba,16407;SOL_COMPUTED,PSRDIFF,45.00040182319,-73.00111543470,25.3209,-29.6000,WGS84,0.6556,0.5583,1.1357,"1",4.000,0.000,9,6,6,0,00,08,00,01*44a52878
#BESTPOSA,USB1_29,0,78.0,FINESTEERING,2163,389130.000,03004120,cdba,16407;SOL_COMPUTED,PSRDIFF,45.00042619398,-73.00109830802,25.2440,-29.6000,WGS84,0.6556,0.5583,1.1356,"1",4.000,0.000,9,6,6,0,00,08,00,01*103c6c7e
#BESTPOSA,USB1_29,0,78.0,FINESTEERING,2163,389131.000,03004120,cdba,16407;SOL_COMPUTED,PSRDIFF,45.00045003420,-73.00108010291,25.1923,-29.6000,WGS84,0.6556,0.5582,1.1355,"1",4.000,0.000,9,6,6,0,00,08,00,01*3e710292
#BESTPOSA,USB1_29,0,76.5,FINESTEERING,2163,389132.000,03004120,cdba,16407;SOL_COMPUTED,PSRDIFF,45.00047357854,-73.00106104867,25.1270,-29.6000,WGS84,0.6556,0.5582,1.1355,"1",4.000,0.000,9,6,6,0,00,08,00,01*34cf7dc5
#BESTPOSA,USB1_29,0,76.5,FINESTEERING,2163,389133.000,03004120,cdba,16407;SOL_COMPUTED,PSRDIFF,45.00049679140,-73.00104096741,25.0623,-29.6000,WGS84,0.6556,0.5582,1.1354,"1",4.000,0.000,9,6,6,0,00,08,00,01*3e71174b
#BESTPOSA,USB1_29,0,77.0,FINESTEERING,2163,389134.000,03004120,cdba,16407;SOL_COMPUTED,PSRDIFF,45.00051949922,-73.00101997867,24.9895,-29.6000,WGS84,0.6556,0.5582,1.1354,"1",4.000,0.000,9,6,6,0,00,08,00,01*e7107911
#BESTPOSA,USB1_29,0,77.5,FINESTEERING,2163,389135.000,03004120,cdba,16407;SOL_COMPUTED,PSRDIFF,45.00054171759,-73.00099812538,24.9408,-29.6000,WGS84,0.6556,0.5582,1.1353,"1",4.000,0.000,9,6,6,0,00,08,00,01*d5fb57ea
#BESTPOSA,USB1_29,0,77.5,FINESTEERING,2163,389136.000,03004120,cdba,16407;SOL_COMPUTED,PSRDIFF,45.00056354555,-73.00097514677,24.8674,-29.6000,WGS84,0.6556,0.5582,1.1353,"1",4.000,0.000,9,6,6,0,00,08,00,01*8ddcab85
#BESTPOSA,USB1_29,0,77.5,FINESTEERING,2163,389137.000,03004120,cdba,16407;SOL_COMPUTED,PSRDIFF,45.00058493763,-73.00095126068,24.7710,-29.6000,WGS84,0.6556,0.5582,1.1352,"1",4.000,0.000,9,6,6,0,00,08,00,01*50fc487a
#BESTPOSA,USB1_29,0,77.5,FINESTEERING,2163,389138.000,03004120,cdba,16407;SOL_COMPUTED,PSRDIFF,45.00060568705,-73.00092666709,24.7009,-29.6000,WGS84,0.6556,0.5581,1.1351,"1",4.000,0.000,9,6,6,0,00,08,00,01*046f0d13
#BESTPOSA,USB1_29,0,77.5,FINESTEERING,2163,389139.000,03004120,cdba,16407;SOL_COMPUTED,PSRDIFF,45.00062597195,-73.00090097804,24.6483,-29.6000,WGS84,0.6556,0.5581,1.1351,"1",4.000,0.000,9,6,6,0,00,08,00,01*5b43c99d
#BESTPOSA,USB1_29,0,78.0,FINESTEERING,2163,389140.000,03004120,cdba,16407;SOL_COMPUTED,PSRDIFF,45.00064571156,-73.00087457649,24.5599,-29.6000,WGS84,0.6556,0.5581,1.1350,"1",4.000,0.000,9,6,6,0,00,08,00,01*6db261cc
#BESTPOSA,USB1_29,0,79.0,FINESTEERING,2163,389141.000,03004120,cdba,16407;SOL_COMPUTED,PSRDIFF,45.00066484219,-73.00084716692,24.4830,-29.6000,WGS84,0.6556,0.5581,1.1350,"1",4.000,0.000,9,6,6,0,00,08,00,01*8113b82a
#BESTPOSA,USB1_29,0,78.5,FINESTEERING,2163,389142.000,03004120,cdba,16407;SOL_COMPUTED,PSRDIFF,45.00068345123,-73.00081907295,24.3990,-29.6000,WGS84,0.6556,0.5581,1.1349,"1",4.000,0.000,9,6,6,0,00,08,00,01*d764fc93
#BESTPOSA,USB1_29,0,77.0,FINESTEERING,2163,389143.000,03004120,cdba,16407;SOL_COMPUTED,PSRDIFF,45.00070142760,-73.00079011612,24.2963,-29.6000,WGS84,0.6556,0.5581,1.1349,"1",4.000,0.000,9,6,6,0,00,08,00,01*302d746f
#BESTPOSA,USB1_29,0,75.5,FINESTEERING,2163,389144.000,03004120,cdba,16407;SOL_COMPUTED,PSRDIFF,45.00071880213,-73.00076038300,24.2077,-29.6000,WGS84,0.6556,0.5581,1.1348,"1",4.000,0.000,9,6,6,0,00,08,00,01*cfdeb518
#BESTPOSA,USB1_29,0,75.5,FINESTEERING,2163,389145.000,03004120,cdba,16407;SOL_COMPUTED,PSRDIFF,45.00073563354,-73.00072996710,24.1318,-29.6000,WGS84,0.6556,0.5581,1.1348,"1",4.000,0.000,9,6,6,0,00,08,00,01*138497cd
#BESTPOSA,USB1_29,0,80.5,FINESTEERING,2163,389146.000,03004120,cdba,16407;SOL_COMPUTED,PSRDIFF,45.00075181525,-73.00069893212,24.0435,-29.6000,WGS84,0.6556,0.5581,1.1347,"1",4.000,0.000,9,6,6,0,00,08,00,01*fc05f172
#BESTPOSA,USB1_29,0,79.5,FINESTEERING,2163,389147.000,03004120,cdba,16407;SOL_COMPUTED,PSRDIFF,45.00076715346,-73.00066713727,23.9452,-29.6000,WGS84,0.6556,0.5580,1.1347,"1",4.000,0.000,9,6,6,0,00,08,00,01*90529ad4
#BESTPOSA,USB1_29,0,78.0,FINESTEERING,2163,389148.000,03004120,cdba,16407;SOL_COMPUTED,PSRDIFF,45.00078198857,-73.00063467683,23.8453,-29.6000,WGS84,0.6556,0.5580,1.1346,"1",4.000,0.000,9,6,6,0,00,08,00,01*5497b550
#BESTPOSA,USB1_29,0,78.0,FINESTEERING,2163,389149.000,03004120,cdba,16407;SOL_COMPUTED,PSRDIFF,45.00079612792,-73.00060173184,23.7562,-29.6000,WGS84,0.6556,0.5580,1.1346,"1",4.000,0.000,9,6,6,0,00,08,00,01*c2224f8a
#BESTPOSA,USB1_29,0,78.0,FINESTEERING,2163,389150.000,03004120,cdba,16407;SOL_COMPUTED,PSRDIFF,45.00080957688,-73.00056809228,23.6598,-29.6000,WGS84,0.6556,0.5580,1.1345,"1",4.000,0.000,9,6,6,0,00,08,00,01*96ee1e55
#BESTPOSA,USB1_29,0,77.0,FINESTEERING,2163,389151.000,03004120,cdba,16407;SOL_COMPUTED,PSRDIFF,45.00082220843,-73.00053397382,23.5469,-29.6000,WGS84,0.6556,0.5580,1.1344,"1",4.000,0.000,9,6,6,0,00,08,00,01*36860f0b
#BESTPOSA,USB1_29,0,77.0,FINESTEERING,2163,389152.000,03004120,cdba,16407;SOL_COMPUTED,PSRDIFF,45.00083430598,-73.00049918121,23.4461,-29.6000,WGS84,0.6556,0.5580,1.1344,"1",4.000,0.000,9,6,6,0,00,08,00,01*ba35f681
#BESTPOSA,USB1_29,0,75.5,FINESTEERING,2163,389153.000,03004120,cdba,16407;SOL_COMPUTED,PSRDIFF,45.00082827793,-73.00048616565,35.3020,-29.6000,WGS84,0.7421,0.6412,2.4531,"1",4.000,0.000,9,5,5,0,00,08,00,01*f09ecba1
#BESTPOSA,USB1_29,0,75.5,FINESTEERING,2163,389154.000,03004120,cdba,16407;SOL_COMPUTED,L1_FLOAT,45.00084927971,-73.00047843858,32.0808,-29.6000,WGS84,0.8320,0.6814,1.4434,"1",3.000,0.000,9,9,9,0,00,20,00,01*7bbad5c7
#BESTPOSA,USB1_29,0,77.5,FINESTEERING,2163,389155.000,03004120,cdba,16407;SOL_COMPUTED,L1_FLOAT,45.00085881372,-73.00044281934,32.0808,-29.6000,WGS84,0.8323,0.6817,1.4440,"1",3.000,0.000,9,9,9,0,00,20,00,01*c8c9a5f8
#BESTPOSA,USB1_29,0,78.5,FINESTEERING,2163,389156.000,03004120,cdba,16407;SOL_COMPUTED,L1_FLOAT,45.00086756588,-73.00040685977,32.0846,-29.6000,WGS84,0.8327,0.6819,1.4447,"1",3.000,0.000,9,9,9,0,00,20,00,01*3c97dcc0
#BESTPOSA,USB1_29,0,79.0,FINESTEERING,2163,389157.000,03004120,cdba,16407;SOL_COMPUTED,L1_FLOAT,45.00087555719,-73.00037051324,32.0839,-29.6000,WGS84,0.8330,0.6822,1.4453,"1",3.000,0.000,9,9,9,0,00,20,00,01*d66dd2dc
#BESTPOSA,USB1_29,0,79.0,FINESTEERING,2163,389158.000,03004120,cdba,16407;SOL_COMPUTED,L1_FLOAT,45.00088278448,-73.00033382762,32.0817,-29.6000,WGS84,0.8334,0.6824,1.4460,"1",3.000,0.000,9,9,9,0,00,20,00,01*2532f3ef
#BESTPOSA,USB1_29,0,79.0,FINESTEERING,2163,389159.000,03004120,cdba,16407;SOL_COMPUTED,L1_FLOAT,45.00088920075,-73.00029690129,32.0875,-29.6000,WGS84,0.8337,0.6827,1.4466,"1",3.000,0.000,9,9,9,0,00,20,00,01*30b7ff38
#BESTPOSA,USB1_29,0,77.5,FINESTEERING,2163,389160.000,03004120,cdba,16407;SOL_COMPUTED,L1_FLOAT,45.00089485736,-73.00025969162,32.0820,-29.6000,WGS84,0.8341,0.6829,1.4473,"1",3.000,0.000,9,9,9,0,00,20,00,01*9910429d
#BESTPOSA,USB1_29,0,77.5,FINESTEERING,2163,389161.000,03004120,cdba,16407;SOL_COMPUTED,L1_FLOAT,45.00089971394,-73.00022223047,32.0826,-29.6000,WGS84,0.8344,0.6832,1.4479,"1",3.000,0.000,9,9,9,0,00,20,00,01*79932c26
#BESTPOSA,USB1_29,0,77.5,FINESTEERING,2163,389162.000,03004120,cdba,16407;SOL_COMPUTED,L1_FLOAT,45.00090376199,-73.00018465317,32.0826,-29.6000,WGS84,0.8348,0.6834,1.4486,"1",3.000,0.000,9,9,9,0,00,20,00,01*5227f570
#BESTPOSA,USB1_29,0,77.0,FINESTEERING,2163,389163.000,03004120,cdba,16407;SOL_COMPUTED,L1_FLOAT,45.00090699963,-73.00014686488,32.0805,-29.6000,WGS84,0.8352,0.6837,1.4493,"1",3.000,0.000,9,9,9,0,00,20,00,01*18aee355
#BESTPOSA,USB1_29,0,77.0,FINESTEERING,2163,389164.000,03004120,cdba,16407;SOL_COMPUTED,L1_FLOAT,45.00090943278,-73.00010898172,32.0851,-29.6000,WGS84,0.8355,0.6839,1.4499,"1",3.000,0.000,9,9,9,0,00,20,00,01*37d5b9de
#BESTPOSA,USB1_29,0,77.0,FINESTEERING,2163,389165.000,03004120,cdba,16407;SOL_COMPUTED,L1_FLOAT,45.00091106962,-73.00007098990,32.0830,-29.6000,WGS84,0.8359,0.6842,1.4506,"1",3.000,0.000,9,9,9,0,00,20,00,01*b3700364
#BESTPOSA,USB1_29,0,77.0,FINESTEERING,2163,389166.000,03004120,cdba,16407;SOL_COMPUTED,L1_FLOAT,45.00091189957,-73.00003297072,32.0779,-29.6000,WGS84,0.8362,0.6845,1.4512,"1",3.000,0.000,9,9,9,0,00,20,00,01*5a85619f
#BESTPOSA,USB1_29,0,78.0,FINESTEERING,2163,389167.000,03004120,cdba,16407;SOL_COMPUTED,L1_FLOAT,45.00091191343,-72.99999490224,32.0835,-29.6000,WGS84,0.8366,0.6847,1.4519,"1",3.000,0.000,9,9,9,0,00,20,00,01*55f7c70a
#BESTPOSA,USB1_29,0,78.5,FINESTEERING,2163,389168.000,03004120,cdba,16407;SOL_COMPUTED,L1_FLOAT,45.00091112548,-72.99995687735,32.0812,-29.6000,WGS84,0.8369,0.6850,1.4525,"1",3.000,0.000,9,9,9,0,00,20,00,01*e2a5f363
#BESTPOSA,USB1_29,0,78.5,FINESTEERING,2163,389169.000,03004120,cdba,16407;SOL_COMPUTED,L1_FLOAT,45.00090952363,-72.99991890140,32.0779,-29.6000,WGS84,0.8373,0.6852,1.4532,"1",3.000,0.000,9,9,9,0,00,20,00,01*986ef5f3
#BESTPOSA,USB1_29,0,77.5,FINESTEERING,2163,389170.000,03004120,cdba,16407;SOL_COMPUTED,L1_FLOAT,45.00090711141,-72.99988101914,32.0807,-29.6000,WGS84,0.8377,0.6855,1.4538,"1",3.000,0.000,9,9,9,0,00,20,00,01*4c4928f9
#BESTPOSA,USB1_29,0,75.5,FINESTEERING,2163,389171.000,03004120,cdba,16407;SOL_COMPUTED,L1_FLOAT,45.00090389373,-72.99984323318,32.0800,-29.6000,WGS84,0.8380,0.6857,1.4545,"1",3.000,0.000,9,9,9,0,00,20,00,01*23a77d5c
#BESTPOSA,USB1_29,0,75.5,FINESTEERING,2163,389172.000,03004120,cdba,16407;SOL_COMPUTED,L1_FLOAT,45.00089988081,-72.99980560763,32.0778,-29.6000,WGS84,0.8384,0.6860,1.4551,"1",3.000,0.000,9,9,9,0,00,20,00,01*e9a09679
#BESTPOSA,USB1_29,0,77.5,FINESTEERING,2163,389173.000,03004120,cdba,16407;SOL_COMPUTED,L1_FLOAT,45.00089504423,-72.99976817890,32.0823,-29.6000,WGS84,0.8387,0.6862,1.4558,"1",3.000,0.000,9,9,9,0,00,20,00,01*d16393c6
#BESTPOSA,USB1_29,0,77.5,FINESTEERING,2163,389174.000,03004120,cdba,16407;SOL_COMPUTED,L1_FLOAT,45.00088945962,-72.99973094986,32.0772,-29.6000,WGS84,0.8391,0.6865,1.4564,"1",3.000,0.000,9,9,9,0,00,20,00,01*57fe4fa6
#BESTPOSA,USB1_29,0,78.0,FINESTEERING,2163,389175.000,03004120,cdba,16407;SOL_COMPUTED,L1_FLOAT,45.00088304757,-72.99969400687,32.0806,-29.6000,WGS84,0.8394,0.6867,1.4571,"1",3.000,0.000,9,9,9,0,00,20,00,01*bb9509bf
#BESTPOSA,USB1_29,0,78.0,FINESTEERING,2163,389176.000,03004120,cdba,16407;SOL_COMPUTED,L1_FLOAT,45.00087586759,-72.99965731053,32.0783,-29.6000,WGS84,0.8398,0.6870,1.4578,"1",3.000,0.000,9,9,9,0,00,20,00,01*49d09fdb
#BESTPOSA,USB1_29,0,78.0,FINESTEERING,2163,389177.000,03004120,cdba,16407;SOL_COMPUTED,L1_FLOAT,45.00086791165,-72.99962093113,32.0785,-29.6000,WGS84,0.8402,0.6873,1.4584,"1",3.000,0.000,9,9,9,0,00,20,00,01*bd70a073
#BESTPOSA,USB1_29,0,79.0,FINESTEERING,2163,389178.000,03004120,cdba,16407;SOL_COMPUTED,L1_FLOAT,45.00085915470,-72.99958497961,32.0777,-29.6000,WGS84,0.8405,0.6875,1.4591,"1",3.000,0.000,9,9,9,0,00,20,00,01*103dcaca
#BESTPOSA,USB1_29,0,79.0,FINESTEERING,2163,389179.000,03004120,cdba,16407;SOL_COMPUTED,L1_FLOAT,45.00084966802,-72.99954932144,32.0793,-29.6000,WGS84,0.8409,0.6878,1.4597,"1",3.000,0.000,9,9,9,0,00,20,00,01*cb9c64e3
#BESTPOSA,USB1_29,0,76.5,FINESTEERING,2163,389180.000,03004120,cdba,16407;SOL_COMPUTED,L1_FLOAT,45.00083942911,-72.99951413542,32.0769,-29.6000,WGS84,0.8412,0.6880,1.4604,"1",3.000,0.000,9,9,9,0,00,20,00,01*24bc4c4e
#BESTPOSA,USB1_29,0,76.5,FINESTEERING,2163,389181.000,03004120,cdba,16407;SOL_COMPUTED,L1_FLOAT,45.00082842300,-72.99947940382,32.0782,-29.6000,WGS84,0.8416,0.6883,1.4610,"1",3.000,0.000,9,9,9,0,00,20,00,01*ced4d23c
#BESTPOSA,USB1_29,0,75.5,FINESTEERING,2163,389182.000,03004120,cdba,16407;SOL_COMPUTED,L1_FLOAT,45.00081671617,-72.99944511683,32.0779,-29.6000,WGS84,0.8420,0.6885,1.4617,"1",3.000,0.000,9,9,9,0,00,20,00,01*5398e1ff
#BESTPOSA,USB1_29,0,75.5,FINESTEERING,2163,389183.000,03004120,cdba,16407;SOL_COMPUTED,L1_FLOAT,45.00080426602,-72.99941135318,32.0754,-29.6000,WGS84,0.8423,0.6888,1.4623,"1",3.000,0.000,9,9,9,0,00,20,00,01*3b1095a7
#BESTPOSA,USB1_29,0,77.0,FINESTEERING,2163,389184.000,03004120,cdba,16407;SOL_COMPUTED,L1_FLOAT,45.00079109236,-72.99937817562,32.0770,-29.6000,WGS84,0.8427,0.6890,1.4630,"1",3.000,0.000,9,9,9,0,00,20,00,01*47d10360
#BESTPOSA,USB1_29,0,78.5,FINESTEERING,2163,389185.000,03004120,cdba,16407;SOL_COMPUTED,L1_FLOAT,45.00077723000,-72.99934549481,32.0785,-29.6000,WGS84,0.8430,0.6893,1.4637,"1",3.000,0.000,9,9,9,0,00,20,00,01*bda7a7a5
#BESTPOSA,USB1_29,0,76.5,FINESTEERING,2163,389186.000,03004120,cdba,16407;SOL_COMPUTED,L1_FLOAT,45.00076267779,-72.99931345397,32.0775,-29.6000,WGS84,0.8434,0.6896,1.4643,"1",3.000,0.000,9,9,9,0,00,20,00,01*d7eb74a4
#BESTPOSA,USB1_29,0,76.5,FINESTEERING,2163,389187.000,03004120,cdba,16407;SOL_COMPUTED,L1_FLOAT,45.00074743280,-72.99928206165,32.0811,-29.6000,WGS84,0.8437,0.6898,1.4650,"1",3.000,0.000,9,9,9,0,00,20,00,01*a029968a
#BESTPOSA,USB1_29,0,77.5,FINESTEERING,2163,389188.000,03004120,cdba,16407;SOL_COMPUTED,L1_FLOAT,45.00073157785,-72.99925127720,32.0792,-29.6000,WGS84,0.8441,0.6901,1.4656,"1",3.000,0.000,9,9,9,0,00,20,00,01*50a667c1
#BESTPOSA,USB1_29,0,77.5,FINESTEERING,2163,389189.000,03004120,cdba,16407;SOL_COMPUTED,L1_FLOAT,45.00071501543,-72.99922119297,32.0777,-29.6000,WGS84,0.8445,0.6903,1.4663,"1",3.000,0.000,9,9,9,0,00,20,00,01*115f44d5
#BESTPOSA,USB1_29,0,77.0,FINESTEERING,2163,389190.000,03004120,cdba,16407;SOL_COMPUTED,L1_FLOAT,45.00069783592,-72.99919188055,32.0759,-29.6000,WGS84,0.8448,0.6906,1.4670,"1",3.000,0.000,9,9,9,0,00,20,00,01*5325e892
#BESTPOSA,USB1_29,0,77.0,FINESTEERING,2163,389191.000,03004120,cdba,16407;SOL_COMPUTED,L1_FLOAT,45.00068006285,-72.99916322105,32.0789,-29.6000,WGS84,0.8452,0.6908,1.4676,"1",3.000,0.000,9,9,9,0,00,20,00,01*7e571bd4
#BESTPOSA,USB1_29,0,77.0,FINESTEERING,2163,389192.000,03004120,cdba,16407;SOL_COMPUTED,L1_FLOAT,45.00066167594,-72.99913537750,32.0743,-29.6000,WGS84,0.8455,0.6911,1.4683,"1",3.000,0.000,9,9,9,0,00,20,00,01*fd15ae96
#BESTPOSA,USB1_29,0,78.0,FINESTEERING,2163,389193.000,03004120,cdba,16407;SOL_COMPUTED,L1_FLOAT,45.00064268427,-72.99910833891,32.0781,-29.6000,WGS84,0.8459,0.6914,1.4689,"1",3.000,0.000,9,9,9,0,00,20,00,01*7529ef20
#BESTPOSA,USB1_29,0,78.0,FINESTEERING,2163,389194.000,03004120,cdba,16407;SOL_COMPUTED,L1_FLOAT,45.00062315606,-72.99908207021,32.0778,-29.6000,WGS84,0.8463,0.6916,1.4696,"1",3.000,0.000,9,9,9,0,00,20,00,01*5b1bbf1c
#BESTPOSA,USB1_29,0,78.0,FINESTEERING,2163,389195.000,03004120,cdba,16407;SOL_COMPUTED,L1_FLOAT,45.00060309457,-72.99905663122,32.0750,-29.6000,WGS84,0.8466,0.6919,1.4702,"1",3.000,0.000,9,9,9,0,00,20,00,01*94854f27
#BESTPOSA,USB1_29,0,76.5,FINESTEERING,2163,389196.000,03004120,cdba,16407;SOL_COMPUTED,L1_FLOAT,45.00058244677,-72.99903212888,32.0776,-29.6000,WGS84,0.8470,0.6921,1.4709,"1",3.000,0.000,9,9,9,0,00,20,00,01*0d078113
#BESTPOSA,USB1_29,0,76.0,FINESTEERING,2163,389197.000,03004120,cdba,16407;SOL_COMPUTED,L1_FLOAT,45.00056132348,-72.99900843549,32.0764,-29.6000,WGS84,0.8473,0.6924,1.4716,"1",3.000,0.000,9,9,9,0,00,20,00,01*14cc4b49
#BESTPOSA,USB1_29,0,75.0,FINESTEERING,2163,389198.000,03004120,cdba,16407;SOL_COMPUTED,L1_FLOAT,45.00053970162,-72.99898567881,32.0732,-29.6000,WGS84,0.8477,0.6926,1.4722,"1",3.000,0.000,9,9,9,0,00,20,00,01*db63d2af
#BESTPOSA,USB1_29,0,74.5,FINESTEERING,2163,389199.000,03004120,cdba,16407;SOL_COMPUTED,L1_FLOAT,45.00051757203,-72.99896386787,32.0769,-29.6000,WGS84,0.8481,0.6929,1.4729,"1",3.000,0.000,9,9,9,0,00,20,00,01*2431fba2
#BESTPOSA,USB1_29,0,74.5,FINESTEERING,2163,389200.000,03004120,cdba,16407;SOL_COMPUTED,L1_FLOAT,45.00049502169,-72.99894295506,32.0757,-29.6000,WGS84,0.8484,0.6932,1.4735,"1",3.000,0.000,9,9,9,0,00,20,00,01*a28922ac
#BESTPOSA,USB1_29,0,75.0,FINESTEERING,2163,389201.000,03004120,cdba,16407;SOL_COMPUTED,L1_FLOAT,45.00047203503,-72.99892300997,32.0757,-29.6000,WGS84,0.8488,0.6934,1.4742,"1",3.000,0.000,9,9,9,0,00,20,00,01*0cc044f6
#BESTPOSA,USB1_29,0,75.5,FINESTEERING,2163,389202.000,03004120,cdba,16407;SOL_COMPUTED,L1_FLOAT,45.00044862250,-72.99890407521,32.0747,-29.6000,WGS84,0.8492,0.6937,1.4749,"1",3.000,0.000,9,9,9,0,00,20,00,01*505c6086
#BESTPOSA,USB1_29,0,77.5,FINESTEERING,2163,389203.000,03004120,cdba,16407;SOL_COMPUTED,L1_FLOAT,45.00042481904,-72.99888609303,32.0768,-29.6000,WGS84,0.8495,0.6939,1.4755,"1",3.000,0.000,9,9,9,0,00,20,00,01*096d49f9
#BESTPOSA,USB1_29,0,79.0,FINESTEERING,2163,389204.000,03004120,cdba,16407;SOL_COMPUTED,L1_FLOAT,45.00040065404,-72.99886916838,32.0716,-29.6000,WGS84,0.8499,0.6942,1.4762,"1",3.000,0.000,9,9,9,0,00,20,00,01*08174b13
#BESTPOSA,USB1_29,0,78.0,FINESTEERING,2163,389205.000,03004120,cdba,16407;SOL_COMPUTED,L1_FLOAT,45.00037611995,-72.99885328487,32.0751,-29.6000,WGS84,0.8502,0.6944,1.4768,"1",3.000,0.000,9,9,9,0,00,20,00,01*14aefd46
#BESTPOSA,USB1_29,0,76.5,FINESTEERING,2163,389206.000,03004120,cdba,16407;SOL_COMPUTED,L1_FLOAT,45.00035128202,-72.99883840595,32.0734,-29.6000,WGS84,0.8506,0.6947,1.4775,"1",3.000,0.000,9,9,9,0,00,20,00,01*1815ffa7
#BESTPOSA,USB1_29,0,76.0,FINESTEERING,2163,389207.000,03004120,cdba,16407;SOL_COMPUTED,L1_FLOAT,45.00032613459,-72.99882458702,32.0731,-29.6000,WGS84,0.8510,0.6950,1.4782,"1",3.000,0.000,9,9,9,0,00,20,00,01*bbe5ca0c
#BESTPOSA,USB1_29,0,76.0,FINESTEERING,2163,389208.000,03004120,cdba,16407;SOL_COMPUTED,L1_FLOAT,45.00030068589,-72.99881188834,32.0728,-29.6000,WGS84,0.8513,0.6952,1.4788,"1",3.000,0.000,9,9,9,0,00,20,00,01*2959b356
#BESTPOSA,USB1_29,0,78.5,FINESTEERING,2163,389209.000,03004120,cdba,16407;SOL_COMPUTED,L1_FLOAT,45.00027500089,-72.99880019915,32.0739,-29.6000,WGS84,0.8517,0.6955,1.4795,"1",3.000,0.000,9,9,9,0,00,20,00,01*2e05b671
#BESTPOSA,USB1_29,0,78.0,FINESTEERING,2163,389210.000,03004120,cdba,16407;SOL_COMPUTED,L1_FLOAT,45.00024907420,-72.99878963027,32.0705,-29.6000,WGS84,0.8520,0.6957,1.4802,"1",3.000,0.000,9,9,9,0,00,20,00,01*00279bfa
#BESTPOSA,USB1_29,0,78.0,FINESTEERING,2163,389211.000,03004120,cdba,16407;SOL_COMPUTED,L1_FLOAT,45.00022291759,-72.99878019343,32.0736,-29.6000,WGS84,0.8524,0.6960,1.4808,"1",3.000,0.000,9,9,9,0,00,20,00,01*9e438c63
#BESTPOSA,USB1_29,0,77.5,FINESTEERING,2163,389212.000,03004120,cdba,16407;SOL_COMPUTED,L1_FLOAT,45.00019659134,-72.99877182663,32.0731,-29.6000,WGS84,0.8528,0.6963,1.4815,"1",3.000,0.000,9,9,9,0,00,20,00,01*10788662
#BESTPOSA,USB1_29,0,76.0,FINESTEERING,2163,389213.000,03004120,cdba,16407;SOL_COMPUTED,L1_FLOAT,45.00017008835,-72.99876457996,32.0715,-29.6000,WGS84,0.8531,0.6965,1.4821,"1",3.000,0.000,9,9,9,0,00,20,00,01*825d97e6
#BESTPOSA,USB1_29,0,76.0,FINESTEERING,2163,389214.000,03004120,cdba,16407;SOL_COMPUTED,L1_FLOAT,45.00014344376,-72.99875850939,32.0728,-29.6000,WGS84,0.8535,0.6968,1.4828,"1",3.000,0.000,9,9,9,0,00,20,00,01*7b4597b2
#BESTPOSA,USB1_29,0,75.0,FINESTEERING,2163,389215.000,03004120,cdba,16407;SOL_COMPUTED,L1_FLOAT,45.00011667743,-72.99875346553,32.0745,-29.6000,WGS84,0.8539,0.6970,1.4835,"1",3.000,0.000,9,9,9,0,00,20,00,01*21044ad6
#BESTPOSA,USB1_29,0,75.0,FINESTEERING,2163,389216.000,03004120,cdba,16407;SOL_COMPUTED,L1_FLOAT,45.00008983132,-72.99874962662,32.0709,-29.6000,WGS84,0.8542,0.6973,1.4841,"1",3.000,0.000,9,9,9,0,00,20,00,01*65b7f002
#BESTPOSA,USB1_29,0,75.0,FINESTEERING,2163,389217.000,03004120,cdba,16407;SOL_COMPUTED,L1_FLOAT,45.00006288506,-72.99874692723,32.0746,-29.6000,WGS84,0.8546,0.6976,1.4848,"1",3.000,0.000,9,9,9,0,00,20,00,01*e270b569
#BESTPOSA,USB1_29,0,75.0,FINESTEERING,2163,389218.000,03004120,cdba,16407;SOL_COMPUTED,L1_FLOAT,45.00003593802,-72.99874535528,32.0733,-29.6000,WGS84,0.8549,0.6978,1.4855,"1",3.000,0.000,9,9,9,0,00,20,00,01*863cb2d0
#BESTPOSA,USB1_29,0,76.0,FINESTEERING,2163,389219.000,03004120,cdba,16407;SOL_COMPUTED,L1_FLOAT,45.00000893577,-72.99874490191,32.0717,-29.6000,WGS84,0.8553,0.6981,1.4861,"1",3.000,0.000,9,9,9,0,00,20,00,01*4c08618b
#BESTPOSA,USB1_29,0,78.0,FINESTEERING,2163,389220.000,03004120,cdba,16407;SOL_COMPUTED,L1_FLOAT,44.99998194852,-72.99874565054,32.0730,-29.6000,WGS84,0.8557,0.6983,1.4868,"1",3.000,0.000,9,9,9,0,00,20,00,01*01b2b88a
#BESTPOSA,USB1_29,0,77.0,FINESTEERING,2163,389221.000,03004120,cdba,16407;SOL_COMPUTED,L1_FLOAT,44.99995498591,-72.99874748063,32.0744,-29.6000,WGS84,0.8560,0.6986,1.4874,"1",3.000,0.000,9,9,9,0,00,20,00,01*c1768192
#BESTPOSA,USB1_29,0,77.0,FINESTEERING,2163,389222.000,03004120,cdba,16407;SOL_COMPUTED,L1_FLOAT,44.99992809351,-72.99875045762,32.0693,-29.6000,WGS84,0.8564,0.6989,1.4881,"1",3.000,0.000,9,9,9,0,00,20,00,01*3887eda5
#BESTPOSA,USB1_29,0,77.5,FINESTEERING,2163,389223.000,03004120,cdba,16407;SOL_COMPUTED,L1_FLOAT,44.99990124248,-72.99875460413,32.0731,-29.6000,WGS84,0.8568,0.6991,1.4888,"1",3.000,0.000,9,9,9,0,00,20,00,01*6e3a8af6
#BESTPOSA,USB1_29,0,77.5,FINESTEERING,2163,389224.000,03004120,cdba,16407;SOL_COMPUTED,L1_FLOAT,44.99987451346,-72.99875985126,32.0729,-29.6000,WGS84,0.8571,0.6994,1.4894,"1",3.000,0.000,9,9,9,0,00,20,00,01*8d195142
#BESTPOSA,USB1_29,0,77.5,FINESTEERING,2163,389225.000,03004120,cdba,16407;SOL_COMPUTED,L1_FLOAT,44.99984792012,-72.99876622830,32.0696,-29.6000,WGS84,0.8575,0.6996,1.4901,"1",3.000,0.000,9,9,9,0,00,20,00,01*b7ae2652
#BESTPOSA,USB1_29,0,75.5,FINESTEERING,2163,389226.000,03004120,cdba,16407;SOL_COMPUTED,L1_FLOAT,44.99982143534,-72.99877376911,32.0710,-29.6000,WGS84,0.8579,0.6999,1.4908,"1",3.000,0.000,9,9,9,0,00,20,00,01*28f488fd
#BESTPOSA,USB1_29,0,75.5,FINESTEERING,2163,389227.000,03004120,cdba,16407;SOL_COMPUTED,L1_FLOAT,44.99979516925,-72.99878236612,32.0732,-29.6000,WGS84,0.8582,0.7002,1.4914,"1",3.000,0.000,9,9,9,0,00,20,00,01*9c1e38ff
#BESTPOSA,USB1_29,0,76.0,FINESTEERING,2163,389228.000,03004120,cdba,16407;SOL_COMPUTED,L1_FLOAT,44.99976904966,-72.99879208688,32.0686,-29.6000,WGS84,0.8586,0.7004,1.4921,"1",3.000,0.000,9,9,9,0,00,20,00,01*f754bd6f
#BESTPOSA,USB1_29,0,76.0,FINESTEERING,2163,389229.000,03004120,cdba,16407;SOL_COMPUTED,L1_FLOAT,44.99974314863,-72.99880293021,32.0714,-29.6000,WGS84,0.8590,0.7007,1.4928,"1",3.000,0.000,9,9,9,0,00,20,00,01*93633715
#BESTPOSA,USB1_29,0,76.5,FINESTEERING,2163,389230.000,03004120,cdba,16407;SOL_COMPUTED,L1_FLOAT,44.99971754964,-72.99881483114,32.0700,-29.6000,WGS84,0.8593,0.7009,1.4934,"1",3.000,0.000,9,9,9,0,00,20,00,01*b094f6d6
#BESTPOSA,USB1_29,0,79.0,FINESTEERING,2163,389231.000,03004120,cdba,16407;SOL_COMPUTED,L1_FLOAT,44.99969217047,-72.99882782288,32.0687,-29.6000,WGS84,0.8597,0.7012,1.4941,"1",3.000,0.000,9,9,9,0,00,20,00,01*bc969f9c
#BESTPOSA,USB1_29,0,79.0,FINESTEERING,2163,389232.000,03004120,cdba,16407;SOL_COMPUTED,L1_FLOAT,44.99966709414,-72.99884192792,32.0693,-29.6000,WGS84,0.8601,0.7015,1.4948,"1",3.000,0.000,9,9,9,0,00,20,00,01*1dcb7b83
#BESTPOSA,USB1_29,0,78.5,FINESTEERING,2163,389233.000,03004120,cdba,16407;SOL_COMPUTED,L1_FLOAT,44.99964231361,-72.99885702272,32.0708,-29.6000,WGS84,0.8604,0.7017,1.4954,"1",3.000,0.000,9,9,9,0,00,20,00,01*8386b04b
#BESTPOSA,USB1_29,0,78.0,FINESTEERING,2163,389234.000,03004120,cdba,16407;SOL_COMPUTED,L1_FLOAT,44.99961787358,-72.99887318909,32.0673,-29.6000,WGS84,0.8608,0.7020,1.4961,"1",3.000,0.000,9,9,9,0,00,20,00,01*ba5eb2ca
#BESTPOSA,USB1_29,0,75.0,FINESTEERING,2163,389235.000,03004120,cdba,16407;SOL_COMPUTED,L1_FLOAT,44.99959380157,-72.99889036055,32.0679,-29.6000,WGS84,0.8611,0.7023,1.4968,"1",3.000,0.000,9,9,9,0,00,20,00,01*9d6d8ebf
#BESTPOSA,USB1_29,0,75.0,FINESTEERING,2163,389236.000,03004120,cdba,16407;SOL_COMPUTED,L1_FLOAT,44.99957009422,-72.99890857071,32.0732,-29.6000,WGS84,0.8615,0.7025,1.4974,"1",3.000,0.000,9,9,9,0,00,20,00,01*af896220
#BESTPOSA,USB1_29,0,75.5,FINESTEERING,2163,389237.000,03004120,cdba,16407;SOL_COMPUTED,L1_FLOAT,44.99954677374,-72.99892773741,32.0714,-29.6000,WGS84,0.8619,0.7028,1.4981,"1",3.000,0.000,9,9,9,0,00,20,00,01*abd30fcb
#BESTPOSA,USB1_29,0,75.5,FINESTEERING,2163,389238.000,03004120,cdba,16407;SOL_COMPUTED,L1_FLOAT,44.99952388122,-72.99894791786,32.0675,-29.6000,WGS84,0.8622,0.7030,1.4988,"1",3.000,0.000,9,9,9,0,00,20,00,01*1547a9d5
#BESTPOSA,USB1_29,0,75.5,FINESTEERING,2163,389239.000,03004120,cdba,16407;SOL_COMPUTED,L1_FLOAT,44.99950143671,-72.99896903148,32.0754,-29.6000,WGS84,0.8626,0.7033,1.4994,"1",3.000,0.000,9,9,9,0,00,20,00,01*574ab43c
#BESTPOSA,USB1_29,0,75.5,FINESTEERING,2163,389240.000,03004120,cdba,16407;SOL_COMPUTED,L1_FLOAT,44.99947945293,-72.99899111212,32.0707,-29.6000,WGS84,0.8630,0.7036,1.5001,"1",3.000,0.000,9,9,9,0,00,20,00,01*d8c2da7a
#BESTPOSA,USB1_29,0,75.5,FINESTEERING,2163,389241.000,03004120,cdba,16407;SOL_COMPUTED,L1_FLOAT,44.99945791847,-72.99901409182,32.0677,-29.6000,WGS84,0.8633,0.7038,1.5008,"1",3.000,0.000,9,9,9,0,00,20,00,01*fe7d03d0
#BESTPOSA,USB1_29,0,75.5,FINESTEERING,2163,389242.000,03004120,cdba,16407;SOL_COMPUTED,L1_FLOAT,44.99943693661,-72.99903797368,32.0721,-29.6000,WGS84,0.8637,0.7041,1.5014,"1",3.000,0.000,9,9,9,0,00,20,00,01*5516cf73
