#BESTPOSA,USB1_29,0,77.0,FINESTEERING,2163,389354.000,03004120,cdba,16407;SOL_COMPUTED,PSRDIFF,45.00072081158,-73.00077900151,29.1704,-29.6000,WGS84,0.6012,0.4701,0.9375,"1",4.000,0.000,9,8,8,0,00,08,00,01*7e6016d5
#BESTPOSA,USB1_29,0,73.0,FINESTEERING,2163,389355.000,03004120,cdba,16407;SOL_COMPUTED,PSRDIFF,45.00073668129,-73.00074857140,29.1861,-29.6000,WGS84,0.6012,0.4701,0.9376,"1",4.000,0.000,9,8,8,0,00,08,00,01*0827c086
#BESTPOSA,USB1_29,0,62.5,FINESTEERING,2163,389356.000,03004120,cdba,16407;SOL_COMPUTED,PSRDIFF,45.00075315887,-73.00071662914,29.1510,-29.6000,WGS84,0.6012,0.4701,0.9377,"1",4.000,0.000,9,8,8,0,00,08,00,01*3bc558ef
#BESTPOSA,USB1_29,0,62.5,FINESTEERING,2163,389357.000,03004120,cdba,16407;SOL_COMPUTED,PSRDIFF,45.00076779642,-73.00068509598,29.0949,-29.6000,WGS84,0.6012,0.4701,0.9378,"1",4.000,0.000,9,8,8,0,00,08,00,01*b0e53e94
#BESTPOSA,USB1_29,0,73.0,FINESTEERING,2163,389358.000,03004120,cdba,16407;SOL_COMPUTED,PSRDIFF,45.00078187537,-73.00065182687,29.1790,-29.6000,WGS84,0.6011,0.4702,0.9379,"1",4.000,0.000,9,8,8,0,00,08,00,01*d2263c5c
#BESTPOSA,USB1_29,0,78.0,FINESTEERING,2163,389359.000,03004120,cdba,16407;SOL_COMPUTED,PSRDIFF,45.00079527431,-73.00061849629,29.2213,-29.6000,WGS84,0.6011,0.4702,0.9379,"1",4.000,0.000,9,8,8,0,00,08,00,01*b0c76918
#BESTPOSA,USB1_29,0,78.0,FINESTEERING,2163,389360.000,03004120,cdba,16407;SOL_COMPUTED,PSRDIFF,45.00080787644,-73.00058524554,29.2224,-29.6000,WGS84,0.6011,0.4702,0.9380,"1",4.000,0.000,9,8,8,0,00,08,00,01*ee6b21ce
#BESTPOSA,USB1_29,0,78.5,FINESTEERING,2163,389361.000,03004120,cdba,16407;SOL_COMPUTED,PSRDIFF,45.00082038607,-73.00055080077,29.2301,-29.6000,WGS84,0.6011,0.4702,0.9381,"1",4.000,0.000,9,8,8,0,00,08,00,01*56d8dda9
#BESTPOSA,USB1_29,0,73.0,FINESTEERING,2163,389362.000,03004120,cdba,16407;SOL_COMPUTED,PSRDIFF,45.00083215380,-73.00051632567,29.1412,-29.6000,WGS84,0.6011,0.4702,0.9382,"1",4.000,0.000,9,8,8,0,00,08,00,01*04c1157b
#BESTPOSA,USB1_29,0,3.0,UNKNOWN,0,32.000,024c5120,cdba,16407;INSUFFICIENT_OBS,NONE,0.00000000000,0.00000000000,0.0000,0.0000,WGS84,0.0000,0.0000,0.0000,"",0.000,0.000,0,0,0,0,00,00,00,00*455e4eee
#BESTPOSA,USB1_29,0,3.0,UNKNOWN,0,33.000,024c5120,cdba,16407;INSUFFICIENT_OBS,NONE,0.00000000000,0.00000000000,0.0000,0.0000,WGS84,0.0000,0.0000,0.0000,"",0.000,0.000,0,0,0,0,00,00,00,00*dc966ee1
#BESTPOSA,USB1_29,0,20.5,UNKNOWN,0,34.000,024c4120,cdba,16407;INSUFFICIENT_OBS,NONE,0.00000000000,0.00000000000,0.0000,0.0000,WGS84,0.0000,0.0000,0.0000,"",0.000,0.000,0,0,0,0,00,00,00,00*76b8d9d7
#BESTPOSA,USB1_29,0,52.0,UNKNOWN,0,35.000,024c4120,cdba,16407;INSUFFICIENT_OBS,NONE,0.00000000000,0.00000000000,0.0000,0.0000,WGS84,0.0000,0.0000,0.0000,"",0.000,0.000,0,0,0,0,00,00,00,00*28e3f560
#BESTPOSA,USB1_29,0,70.5,UNKNOWN,0,36.000,024c4120,cdba,16407;INSUFFICIENT_OBS,NONE,0.00000000000,0.00000000000,0.0000,0.0000,WGS84,0.0000,0.0000,0.0000,"",0.000,0.000,0,0,0,0,00,00,00,00*b07f15fd
#BESTPOSA,USB1_29,0,73.0,UNKNOWN,0,37.000,024c4120,cdba,16407;INSUFFICIENT_OBS,NONE,0.00000000000,0.00000000000,0.0000,0.0000,WGS84,0.0000,0.0000,0.0000,"",0.000,0.000,0,0,0,0,00,00,00,00*27f57a6e
#BESTPOSA,USB1_29,0,73.0,UNKNOWN,0,38.000,024c4120,cdba,16407;INSUFFICIENT_OBS,NONE,0.00000000000,0.00000000000,0.0000,0.0000,WGS84,0.0000,0.0000,0.0000,"",0.000,0.000,0,0,0,0,00,00,00,00*4908833f
#BESTPOSA,USB1_29,0,70.5,UNKNOWN,0,39.000,024c4120,cdba,16407;INSUFFICIENT_OBS,NONE,0.00000000000,0.00000000000,0.0000,0.0000,WGS84,0.0000,0.0000,0.0000,"",0.000,0.000,0,0,0,0,00,00,00,00*de82ecac
#BESTPOSA,USB1_29,0,70.5,COARSESTEERING,2163,389408.000,024c4120,cdba,16407;SOL_COMPUTED,SINGLE,45.00055037318,-72.99897180085,15.0763,0.0000,WGS84,38.7693,31.9853,61.3081,"",0.000,0.000,6,6,6,0,00,00,00,01*11f664dd
#BESTPOSA,USB1_29,0,70.0,COARSESTEERING,2163,389409.000,024c4120,cdba,16407;SOL_COMPUTED,SINGLE,45.00052814748,-72.99895022684,15.0373,0.0000,WGS84,38.7680,31.9822,61.3022,"",0.000,0.000,6,6,6,0,00,00,00,01*3df268b6
#BESTPOSA,USB1_29,0,70.0,COARSESTEERING,2163,389410.000,02444120,cdba,16407;SOL_COMPUTED,SINGLE,45.00047026776,-72.99892704675,32.0715,-29.6000,WGS84,2.6060,2.0164,3.7993,"",0.000,0.000,6,6,6,0,00,02,00,01*506d6e05
#BESTPOSA,USB1_29,0,71.0,COARSESTEERING,2163,389411.000,02404120,cdba,16407;SOL_COMPUTED,SINGLE,45.00044693920,-72.99890772346,32.1293,-29.6000,WGS84,2.6058,2.0162,3.7989,"",0.000,0.000,6,6,6,0,00,02,00,01*e1eec001
#BESTPOSA,USB1_29,0,74.5,COARSESTEERING,2163,389412.000,02404120,cdba,16407;SOL_COMPUTED,SINGLE,45.00042294945,-72.99888941384,32.1574,-29.6000,WGS84,2.6057,2.0161,3.7985,"",0.000,0.000,6,6,6,0,00,02,00,01*41d54610
#BESTPOSA,USB1_29,0,79.5,FINESTEERING,2163,389413.000,02404120,cdba,16407;SOL_COMPUTED,SINGLE,45.00039905894,-72.99887203769,32.0546,-29.6000,WGS84,2.6055,2.0159,3.7982,"",0.000,0.000,6,6,6,0,00,02,00,01*021eb950
#BESTPOSA,USB1_29,0,75.0,FINESTEERING,2163,389414.000,02404120,cdba,16407;SOL_COMPUTED,SINGLE,45.00037491089,-72.99885608101,32.0723,-29.6000,WGS84,2.6054,2.0157,3.7978,"",0.000,0.000,8,6,6,0,00,02,00,01*50ca6023
#BESTPOSA,USB1_29,0,75.0,FINESTEERING,2163,389415.000,02404120,cdba,16407;SOL_COMPUTED,PSRDIFF,45.00034996703,-72.99883199861,31.3948,-29.6000,WGS84,0.5711,0.5079,1.0193,"1",4.000,0.000,8,8,8,0,00,08,00,01*c8f38ba4
#BESTPOSA,USB1_29,0,77.5,FINESTEERING,2163,389416.000,02404120,cdba,16407;SOL_COMPUTED,PSRDIFF,45.00032511475,-72.99881743612,31.3300,-29.6000,WGS84,0.5711,0.5079,1.0193,"1",4.000,0.000,8,8,8,0,00,08,00,01*c2f53cf7
#BESTPOSA,USB1_29,0,77.5,FINESTEERING,2163,389417.000,03404120,cdba,16407;SOL_COMPUTED,PSRDIFF,45.00029981088,-72.99880447711,31.4474,-29.6000,WGS84,0.5710,0.5078,1.0192,"1",4.000,0.000,8,8,8,0,00,08,00,01*a30176ab
#BESTPOSA,USB1_29,0,78.5,FINESTEERING,2163,389418.000,03404120,cdba,16407;SOL_COMPUTED,PSRDIFF,45.00027410053,-72.99879187728,31.4985,-29.6000,WGS84,0.5709,0.5078,1.0192,"1",4.000,0.000,8,8,8,0,00,08,00,01*25fb993b
#BESTPOSA,USB1_29,0,78.5,FINESTEERING,2163,389419.000,03404120,cdba,16407;SOL_COMPUTED,PSRDIFF,45.00024817110,-72.99878111525,31.5145,-29.6000,WGS84,0.5709,0.5078,1.0191,"1",4.000,0.000,8,8,8,0,00,08,00,01*cbb0e081
#BESTPOSA,USB1_29,0,79.5,FINESTEERING,2163,389420.000,03404120,cdba,16407;SOL_COMPUTED,PSRDIFF,45.00022217915,-72.99877179744,31.5906,-29.6000,WGS84,0.5708,0.5077,1.0190,"1",4.000,0.000,8,8,8,0,00,08,00,01*cde0ad2f
#BESTPOSA,USB1_29,0,77.0,FINESTEERING,2163,389421.000,03404120,cdba,16407;SOL_COMPUTED,PSRDIFF,45.00019590185,-72.99876323006,31.6438,-29.6000,WGS84,0.5707,0.5077,1.0190,"1",4.000,0.000,8,8,8,0,00,08,00,01*ee38d958
#BESTPOSA,USB1_29,0,77.0,FINESTEERING,2163,389422.000,03404120,cdba,16407;SOL_COMPUTED,PSRDIFF,45.00016958957,-72.99875575519,31.6392,-29.6000,WGS84,0.5707,0.5076,1.0190,"1",4.000,0.000,8,8,8,0,00,08,00,01*12d69df9
#BESTPOSA,USB1_29,0,75.5,FINESTEERING,2163,389423.000,03404120,cdba,16407;SOL_COMPUTED,PSRDIFF,45.00014254533,-72.99874903011,31.5943,-29.6000,WGS84,0.5706,0.5076,1.0189,"1",4.000,0.000,8,8,8,0,00,08,00,01*ad0f32ef
#BESTPOSA,USB1_29,0,75.5,FINESTEERING,2163,389424.000,03004120,cdba,16407;SOL_COMPUTED,PSRDIFF,45.00011516255,-72.99874368082,31.7011,-29.6000,WGS84,0.5705,0.5075,1.0189,"1",4.000,0.000,8,8,8,0,00,08,00,01*1b7f30fd
#BESTPOSA,USB1_29,0,77.5,FINESTEERING,2163,389425.000,03004120,cdba,16407;SOL_COMPUTED,PSRDIFF,45.00008794407,-72.99873932511,31.6335,-29.6000,WGS84,0.5705,0.5075,1.0188,"1",4.000,0.000,8,8,8,0,00,08,00,01*40b2c52b
#BESTPOSA,USB1_29,0,78.0,FINESTEERING,2163,389426.000,03004120,cdba,16407;SOL_COMPUTED,PSRDIFF,45.00006064499,-72.99873595379,31.6299,-29.6000,WGS84,0.5704,0.5074,1.0188,"1",4.000,0.000,8,8,8,0,00,08,00,01*d877d8d5
#BESTPOSA,USB1_29,0,78.0,FINESTEERING,2163,389427.000,03004120,cdba,16407;SOL_COMPUTED,PSRDIFF,45.00003389937,-72.99873392053,31.6341,-29.6000,WGS84,0.5704,0.5074,1.0188,"1",4.000,0.000,8,8,8,0,00,08,00,01*051a31dd
#BESTPOSA,USB1_29,0,75.0,FINESTEERING,2163,389428.000,03004120,cdba,16407;SOL_COMPUTED,PSRDIFF,45.00000734948,-72.99873304534,31.5547,-29.6000,WGS84,0.5703,0.5074,1.0188,"1",4.000,0.000,8,8,8,0,00,08,00,01*ac24a378
#BESTPOSA,USB1_29,0,74.5,FINESTEERING,2163,389429.000,03004120,cdba,16407;SOL_COMPUTED,PSRDIFF,44.99998080989,-72.99873327157,31.5422,-29.6000,WGS84,0.5703,0.5074,1.0188,"1",4.000,0.000,8,8,8,0,00,08,00,01*eaab46d2
#BESTPOSA,USB1_29,0,74.5,FINESTEERING,2163,389430.000,03004120,cdba,16407;SOL_COMPUTED,PSRDIFF,44.99995407048,-72.99873490651,31.5091,-29.6000,WGS84,0.5702,0.5073,1.0188,"1",4.000,0.000,8,8,8,0,00,08,00,01*8c855b4a
#BESTPOSA,USB1_29,0,77.0,FINESTEERING,2163,389431.000,03004120,cdba,16407;SOL_COMPUTED,PSRDIFF,44.99992708428,-72.99873740447,31.4587,-29.6000,WGS84,0.5702,0.5073,1.0188,"1",4.000,0.000,8,8,8,0,00,08,00,01*3bac5d3c
#BESTPOSA,USB1_29,0,76.0,FINESTEERING,2163,389432.000,03004120,cdba,16407;SOL_COMPUTED,PSRDIFF,44.99989997626,-72.99874072455,31.4668,-29.6000,WGS84,0.5701,0.5073,1.0187,"1",4.000,0.000,8,8,8,0,00,08,00,01*42796b45
#BESTPOSA,USB1_29,0,75.5,FINESTEERING,2163,389433.000,03004120,cdba,16407;SOL_COMPUTED,PSRDIFF,44.99987275380,-72.99874554501,31.4772,-29.6000,WGS84,0.5701,0.5073,1.0188,"1",4.000,0.000,8,8,8,0,00,08,00,01*89194736
#BESTPOSA,USB1_29,0,75.5,FINESTEERING,2163,389434.000,03004120,cdba,16407;SOL_COMPUTED,PSRDIFF,44.99984593842,-72.99875178963,31.4079,-29.6000,WGS84,0.5700,0.5072,1.0188,"1",4.000,0.000,8,8,8,0,00,08,00,01*fb587057
#BESTPOSA,USB1_29,0,74.0,FINESTEERING,2163,389435.000,03004120,cdba,16407;SOL_COMPUTED,PSRDIFF,44.99981940287,-72.99875848326,31.4232,-29.6000,WGS84,0.5700,0.5072,1.0187,"1",4.000,0.000,8,8,8,0,00,08,00,01*f2a02dc9
#BESTPOSA,USB1_29,0,74.0,FINESTEERING,2163,389436.000,03004120,cdba,16407;SOL_COMPUTED,PSRDIFF,44.99979344046,-72.99876612611,31.3349,-29.6000,WGS84,0.5699,0.5072,1.0187,"1",4.000,0.000,8,8,8,0,00,08,00,01*f5fcddec
#BESTPOSA,USB1_29,0,77.0,FINESTEERING,2163,389437.000,03004120,cdba,16407;SOL_COMPUTED,PSRDIFF,44.99976745478,-72.99877525513,31.2426,-29.6000,WGS84,0.5699,0.5071,1.0186,"1",4.000,0.000,8,8,8,0,00,08,00,01*39cd02ab
#BESTPOSA,USB1_29,0,77.0,FINESTEERING,2163,389438.000,03004120,cdba,16407;SOL_COMPUTED,PSRDIFF,44.99974169365,-72.99878526324,31.1015,-29.6000,WGS84,0.5698,0.5071,1.0186,"1",4.000,0.000,8,8,8,0,00,08,00,01*2f45b068
#BESTPOSA,USB1_29,0,77.0,FINESTEERING,2163,389439.000,03004120,cdba,16407;SOL_COMPUTED,PSRDIFF,44.99971618436,-72.99879730362,31.0846,-29.6000,WGS84,0.5698,0.5071,1.0186,"1",4.000,0.000,8,8,8,0,00,08,00,01*eeb6b5b5
#BESTPOSA,USB1_29,0,77.5,FINESTEERING,2163,389440.000,03004120,cdba,16407;SOL_COMPUTED,PSRDIFF,44.99969052797,-72.99881057094,31.1047,-29.6000,WGS84,0.5697,0.5070,1.0186,"1",4.000,0.000,8,8,8,0,00,08,00,01*180df967
#BESTPOSA,USB1_29,0,77.5,FINESTEERING,2163,389441.000,03004120,cdba,16407;SOL_COMPUTED,PSRDIFF,44.99966525972,-72.99882431555,31.1904,-29.6000,WGS84,0.5696,0.5070,1.0185,"1",4.000,0.000,8,8,8,0,00,08,00,01*32953a3a
#BESTPOSA,USB1_29,0,75.5,FINESTEERING,2163,389442.000,03004120,cdba,16407;SOL_COMPUTED,PSRDIFF,44.99964065557,-72.99883899526,31.2280,-29.6000,WGS84,0.5696,0.5070,1.0185,"1",4.000,0.000,8,8,8,0,00,08,00,01*0f3a4815
#BESTPOSA,USB1_29,0,75.5,FINESTEERING,2163,389443.000,03004120,cdba,16407;SOL_COMPUTED,PSRDIFF,44.99961553918,-72.99885415085,31.3344,-29.6000,WGS84,0.5695,0.5069,1.0185,"1",4.000,0.000,8,8,8,0,00,08,00,01*5b249fe3
#BESTPOSA,USB1_29,0,80.5,FINESTEERING,2163,389444.000,03004120,cdba,16407;SOL_COMPUTED,PSRDIFF,44.99959104901,-72.99887062014,31.3447,-29.6000,WGS84,0.5695,0.5069,1.0185,"1",4.000,0.000,8,8,8,0,00,08,00,01*574299a6
#BESTPOSA,USB1_29,0,78.0,FINESTEERING,2163,389445.000,03004120,cdba,16407;SOL_COMPUTED,PSRDIFF,44.99956735931,-72.99888814552,31.3159,-29.6000,WGS84,0.5694,0.5069,1.0185,"1",4.000,0.000,8,8,8,0,00,08,00,01*4b5bda19
#BESTPOSA,USB1_29,0,77.0,FINESTEERING,2163,389446.000,03004120,cdba,16407;SOL_COMPUTED,PSRDIFF,44.99954352110,-72.99890681474,31.3348,-29.6000,WGS84,0.5694,0.5068,1.0184,"1",4.000,0.000,8,8,8,0,00,08,00,01*7d3abd9c
#BESTPOSA,USB1_29,0,75.5,FINESTEERING,2163,389447.000,03004120,cdba,16407;SOL_COMPUTED,PSRDIFF,44.99952082541,-72.99892665292,31.2717,-29.6000,WGS84,0.5694,0.5068,1.0184,"1",4.000,0.000,8,8,8,0,00,08,00,01*5eac76e6
#BESTPOSA,USB1_29,0,75.5,FINESTEERING,2163,389448.000,03004120,cdba,16407;SOL_COMPUTED,PSRDIFF,44.99949828709,-72.99894732377,31.2072,-29.6000,WGS84,0.5693,0.5068,1.0184,"1",4.000,0.000,8,8,8,0,00,08,00,01*7525eb82
#BESTPOSA,USB1_29,0,76.5,FINESTEERING,2163,389449.000,03004120,cdba,16407;SOL_COMPUTED,PSRDIFF,44.99947592920,-72.99896929237,31.1751,-29.6000,WGS84,0.5693,0.5068,1.0184,"1",4.000,0.000,8,8,8,0,00,08,00,01*94083909
#BESTPOSA,USB1_29,0,76.5,FINESTEERING,2163,389450.000,03004120,cdba,16407;SOL_COMPUTED,PSRDIFF,44.99945451763,-72.99899191112,31.0803,-29.6000,WGS84,0.5692,0.5067,1.0184,"1",4.000,0.000,8,8,8,0,00,08,00,01*503418e9
#BESTPOSA,USB1_29,0,76.5,FINESTEERING,2163,389451.000,03004120,cdba,16407;SOL_COMPUTED,PSRDIFF,44.99943343290,-72.99901559840,31.0589,-29.6000,WGS84,0.5692,0.5067,1.0184,"1",4.000,0.000,8,8,8,0,00,08,00,01*90db2ebd
#BESTPOSA,USB1_29,0,76.5,FINESTEERING,2163,389452.000,03004120,cdba,16407;SOL_COMPUTED,PSRDIFF,44.99941314291,-72.99904012981,30.9620,-29.6000,WGS84,0.5691,0.5067,1.0184,"1",4.000,0.000,8,8,8,0,00,08,00,01*593b92b1
#BESTPOSA,USB1_29,0,76.5,FINESTEERING,2163,389453.000,03004120,cdba,16407;SOL_COMPUTED,PSRDIFF,44.99939291942,-72.99906515417,30.9144,-29.6000,WGS84,0.5690,0.5066,1.0183,"1",4.000,0.000,8,8,8,0,00,08,00,01*b86def4a
#BESTPOSA,USB1_29,0,76.0,FINESTEERING,2163,389454.000,03004120,cdba,16407;SOL_COMPUTED,PSRDIFF,44.99937243492,-72.99909133837,30.9815,-29.6000,WGS84,0.5690,0.5066,1.0183,"1",4.000,0.000,8,8,8,0,00,08,00,01*55eab0ee
#BESTPOSA,USB1_29,0,76.0,FINESTEERING,2163,389455.000,03004120,cdba,16407;SOL_COMPUTED,PSRDIFF,44.99935286759,-72.99911848409,31.0111,-29.6000,WGS84,0.5690,0.5066,1.0183,"1",4.000,0.000,8,8,8,0,00,08,00,01*afa46531
#BESTPOSA,USB1_29,0,73.5,FINESTEERING,2163,389456.000,03004120,cdba,16407;SOL_COMPUTED,PSRDIFF,44.99933410201,-72.99914567638,31.0128,-29.6000,WGS84,0.5689,0.5065,1.0183,"1",4.000,0.000,8,8,8,0,00,08,00,01*510220bc
#BESTPOSA,USB1_29,0,73.5,FINESTEERING,2163,389457.000,03004120,cdba,16407;SOL_COMPUTED,PSRDIFF,44.99931597873,-72.99917422029,31.0296,-29.6000,WGS84,0.5689,0.5065,1.0183,"1",4.000,0.000,8,8,8,0,00,08,00,01*5f3a7eed
#BESTPOSA,USB1_29,0,75.5,FINESTEERING,2163,389458.000,03004120,cdba,16407;SOL_COMPUTED,PSRDIFF,44.99929903384,-72.99920328757,30.9649,-29.6000,WGS84,0.5688,0.5065,1.0183,"1",4.000,0.000,8,8,8,0,00,08,00,01*cef0ff47
#BESTPOSA,USB1_29,0,74.0,FINESTEERING,2163,389459.000,03004120,cdba,16407;SOL_COMPUTED,PSRDIFF,44.99928251146,-72.99923282606,30.9501,-29.6000,WGS84,0.5688,0.5064,1.0183,"1",4.000,0.000,8,8,8,0,00,08,00,01*c3312ac5
#BESTPOSA,USB1_29,0,74.0,FINESTEERING,2163,389460.000,03004120,cdba,16407;SOL_COMPUTED,PSRDIFF,44.99926608713,-72.99926401690,31.0076,-29.6000,WGS84,0.5687,0.5064,1.0182,"1",4.000,0.000,8,8,8,0,00,08,00,01*ef6c4b61
#BESTPOSA,USB1_29,0,74.5,FINESTEERING,2163,389461.000,03004120,cdba,16407;SOL_COMPUTED,PSRDIFF,44.99925095750,-72.99929546110,30.9911,-29.6000,WGS84,0.5687,0.5064,1.0182,"1",4.000,0.000,8,8,8,0,00,08,00,01*0c639ffa
#BESTPOSA,USB1_29,0,73.5,FINESTEERING,2163,389462.000,03004120,cdba,16407;SOL_COMPUTED,PSRDIFF,44.99923668730,-72.99932755431,31.0191,-29.6000,WGS84,0.5686,0.5064,1.0183,"1",4.000,0.000,8,8,8,0,00,08,00,01*118b6044
#BESTPOSA,USB1_29,0,73.5,FINESTEERING,2163,389463.000,03004120,cdba,16407;SOL_COMPUTED,PSRDIFF,44.99922242643,-72.99936073510,31.1004,-29.6000,WGS84,0.5686,0.5064,1.0183,"1",4.000,0.000,8,8,8,0,00,08,00,01*8a93cdf5
#BESTPOSA,USB1_29,0,75.0,FINESTEERING,2163,389464.000,03004120,cdba,16407;SOL_COMPUTED,PSRDIFF,44.99920956594,-72.99939369497,31.0039,-29.6000,WGS84,0.5686,0.5063,1.0182,"1",4.000,0.000,8,8,8,0,00,08,00,01*f20009d2
#BESTPOSA,USB1_29,0,74.5,FINESTEERING,2163,389465.000,03004120,cdba,16407;SOL_COMPUTED,PSRDIFF,44.99919703542,-72.99942716903,31.0133,-29.6000,WGS84,0.5685,0.5063,1.0182,"1",4.000,0.000,8,8,8,0,00,08,00,01*a16eb784
#BESTPOSA,USB1_29,0,73.0,FINESTEERING,2163,389466.000,03004120,cdba,16407;SOL_COMPUTED,PSRDIFF,44.99918461474,-72.99946145580,31.0097,-29.6000,WGS84,0.5685,0.5063,1.0182,"1",4.000,0.000,8,8,8,0,00,08,00,01*803f5c3b
#BESTPOSA,USB1_29,0,73.0,FINESTEERING,2163,389467.000,03004120,cdba,16407;SOL_COMPUTED,PSRDIFF,44.99917395500,-72.99949538258,30.8490,-29.6000,WGS84,0.5684,0.5063,1.0182,"1",4.000,0.000,8,8,8,0,00,08,00,01*544b12ae
#BESTPOSA,USB1_29,0,75.0,FINESTEERING,2163,389468.000,03004120,cdba,16407;SOL_COMPUTED,PSRDIFF,44.99916309045,-72.99953054654,30.8540,-29.6000,WGS84,0.5684,0.5062,1.0182,"1",4.000,0.000,8,8,8,0,00,08,00,01*e1e13726
#BESTPOSA,USB1_29,0,75.0,FINESTEERING,2163,389469.000,03004120,cdba,16407;SOL_COMPUTED,PSRDIFF,44.99915327759,-72.99956621401,30.7957,-29.6000,WGS84,0.5683,0.5062,1.0182,"1",4.000,0.000,8,8,8,0,00,08,00,01*503eb012
#BESTPOSA,USB1_29,0,75.5,FINESTEERING,2163,389470.000,03004120,cdba,16407;SOL_COMPUTED,PSRDIFF,44.99914428060,-72.99960184966,30.7394,-29.6000,WGS84,0.5683,0.5062,1.0182,"1",4.000,0.000,8,8,8,0,00,08,00,01*79ca6651
#BESTPOSA,USB1_29,0,75.5,FINESTEERING,2163,389471.000,03004120,cdba,16407;SOL_COMPUTED,PSRDIFF,44.99913599288,-72.99963854517,30.8100,-29.6000,WGS84,0.5682,0.5061,1.0182,"1",4.000,0.000,8,8,8,0,00,08,00,01*159f573d
#BESTPOSA,USB1_29,0,72.0,FINESTEERING,2163,389472.000,03004120,cdba,16407;SOL_COMPUTED,PSRDIFF,44.99912869442,-72.99967567833,30.7377,-29.6000,WGS84,0.5682,0.5061,1.0182,"1",4.000,0.000,8,8,8,0,00,08,00,01*cd8f58db
#BESTPOSA,USB1_29,0,72.0,FINESTEERING,2163,389473.000,03004120,cdba,16407;SOL_COMPUTED,PSRDIFF,44.99912202694,-72.99971311182,30.7485,-29.6000,WGS84,0.5681,0.5061,1.0182,"1",4.000,0.000,8,8,8,0,00,08,00,01*d7ddf937
#BESTPOSA,USB1_29,0,73.5,FINESTEERING,2163,389474.000,03004120,cdba,16407;SOL_COMPUTED,PSRDIFF,44.99911650040,-72.99975030707,30.7242,-29.6000,WGS84,0.5681,0.5061,1.0182,"1",4.000,0.000,8,8,8,0,00,08,00,01*aa189bfc
#BESTPOSA,USB1_29,0,74.0,FINESTEERING,2163,389475.000,03004120,cdba,16407;SOL_COMPUTED,PSRDIFF,44.99911129897,-72.99978723480,30.6719,-29.6000,WGS84,0.5681,0.5060,1.0182,"1",4.000,0.000,8,8,8,0,00,08,00,01*f1f1a41e
#BESTPOSA,USB1_29,0,75.0,FINESTEERING,2163,389476.000,03004120,cdba,16407;SOL_COMPUTED,PSRDIFF,44.99910711470,-72.99982406317,30.6519,-29.6000,WGS84,0.5680,0.5060,1.0182,"1",4.000,0.000,8,8,8,0,00,08,00,01*614dc458
#BESTPOSA,USB1_29,0,75.5,FINESTEERING,2163,389477.000,03004120,cdba,16407;SOL_COMPUTED,PSRDIFF,44.99910419610,-72.99986066437,30.5574,-29.6000,WGS84,0.5680,0.5060,1.0182,"1",4.000,0.000,8,8,8,0,00,08,00,01*9c37e190
#BESTPOSA,USB1_29,0,71.5,FINESTEERING,2163,389478.000,03004120,cdba,16407;SOL_COMPUTED,PSRDIFF,44.99910175466,-72.99989869648,30.4895,-29.6000,WGS84,0.5679,0.5060,1.0181,"1",4.000,0.000,8,8,8,0,00,08,00,01*d009bb11
#BESTPOSA,USB1_29,0,71.5,FINESTEERING,2163,389479.000,03004120,cdba,16407;SOL_COMPUTED,PSRDIFF,44.99910006149,-72.99993724262,30.4601,-29.6000,WGS84,0.5679,0.5059,1.0181,"1",4.000,0.000,8,8,8,0,00,08,00,01*1d0cd6f4
#BESTPOSA,USB1_29,0,75.0,FINESTEERING,2163,389480.000,03004120,cdba,16407;SOL_COMPUTED,PSRDIFF,44.99909911026,-72.99997545115,30.5160,-29.6000,WGS84,0.5679,0.5059,1.0181,"1",4.000,0.000,8,8,8,0,00,08,00,01*a1666609
#BESTPOSA,USB1_29,0,75.0,FINESTEERING,2163,389481.000,03004120,cdba,16407;SOL_COMPUTED,PSRDIFF,44.99909829734,-73.00001423261,30.5993,-29.6000,WGS84,0.5678,0.5059,1.0181,"1",4.000,0.000,8,8,8,0,00,08,00,01*55cc674c
#BESTPOSA,USB1_29,0,75.0,FINESTEERING,2163,389482.000,03004120,cdba,16407;SOL_COMPUTED,PSRDIFF,44.99909840618,-73.00005261243,30.6937,-29.6000,WGS84,0.5678,0.5059,1.0181,"1",4.000,0.000,8,8,8,0,00,08,00,01*57d915d9
#BESTPOSA,USB1_29,0,76.5,FINESTEERING,2163,389483.000,03004120,cdba,16407;SOL_COMPUTED,PSRDIFF,44.99909976984,-73.00009038336,30.7103,-29.6000,WGS84,0.5677,0.5058,1.0181,"1",4.000,0.000,8,8,8,0,00,08,00,01*41899230
#BESTPOSA,USB1_29,0,74.5,FINESTEERING,2163,389484.000,03004120,cdba,16407;SOL_COMPUTED,PSRDIFF,44.99910194765,-73.00012813443,30.6511,-29.6000,WGS84,0.5677,0.5058,1.0181,"1",4.000,0.000,8,8,8,0,00,08,00,01*3d00d0f6
#BESTPOSA,USB1_29,0,73.5,FINESTEERING,2163,389485.000,03004120,cdba,16407;SOL_COMPUTED,PSRDIFF,44.99910524767,-73.00016582957,30.6848,-29.6000,WGS84,0.5676,0.5058,1.0181,"1",4.000,0.000,8,8,8,0,00,08,00,01*8b4b6e25
#BESTPOSA,USB1_29,0,73.5,FINESTEERING,2163,389486.000,03004120,cdba,16407;SOL_COMPUTED,PSRDIFF,44.99910933848,-73.00020278122,30.6133,-29.6000,WGS84,0.5676,0.5058,1.0181,"1",4.000,0.000,8,8,8,0,00,08,00,01*14211ebf
#BESTPOSA,USB1_29,0,72.5,FINESTEERING,2163,389487.000,03004120,cdba,16407;SOL_COMPUTED,PSRDIFF,44.99911381693,-73.00024062631,30.6648,-29.6000,WGS84,0.5676,0.5057,1.0181,"1",4.000,0.000,8,8,8,0,00,08,00,01*2b864c96
#BESTPOSA,USB1_29,0,72.5,FINESTEERING,2163,389488.000,03004120,cdba,16407;SOL_COMPUTED,PSRDIFF,44.99911936198,-73.00027827938,30.6493,-29.6000,WGS84,0.5675,0.5057,1.0181,"1",4.000,0.000,8,8,8,0,00,08,00,01*9631c28b
#BESTPOSA,USB1_29,0,73.5,FINESTEERING,2163,389489.000,03004120,cdba,16407;SOL_COMPUTED,PSRDIFF,44.99912573172,-73.00031571682,30.5389,-29.6000,WGS84,0.5675,0.5057,1.0181,"1",4.000,0.000,8,8,8,0,00,08,00,01*a2812c1c
#BESTPOSA,USB1_29,0,75.0,FINESTEERING,2163,389490.000,03004120,cdba,16407;SOL_COMPUTED,PSRDIFF,44.99913270665,-73.00035265769,30.4212,-29.6000,WGS84,0.5674,0.5057,1.0181,"1",4.000,0.000,8,8,8,0,00,08,00,01*ef25eb0c
#BESTPOSA,USB1_29,0,77.0,FINESTEERING,2163,389491.000,03004120,cdba,16407;SOL_COMPUTED,PSRDIFF,44.99914067594,-73.00038934189,30.2979,-29.6000,WGS84,0.5674,0.5056,1.0181,"1",4.000,0.000,8,8,8,0,00,08,00,01*49c8e1c8
#BESTPOSA,USB1_29,0,75.0,FINESTEERING,2163,389492.000,03004120,cdba,16407;SOL_COMPUTED,PSRDIFF,44.99914933162,-73.00042564146,30.2800,-29.6000,WGS84,0.5673,0.5056,1.0181,"1",4.000,0.000,8,8,8,0,00,08,00,01*5c632e70
#BESTPOSA,USB1_29,0,75.0,FINESTEERING,2163,389493.000,03004120,cdba,16407;SOL_COMPUTED,PSRDIFF,44.99915814906,-73.00046154030,30.2550,-29.6000,WGS84,0.5673,0.5056,1.0181,"1",4.000,0.000,8,8,8,0,00,08,00,01*33efb8fa
#BESTPOSA,USB1_29,0,77.0,FINESTEERING,2163,389494.000,03004120,cdba,16407;SOL_COMPUTED,PSRDIFF,44.99916797628,-73.00049773918,30.2422,-29.6000,WGS84,0.5673,0.5056,1.0181,"1",4.000,0.000,8,8,8,0,00,08,00,01*606c1951
#BESTPOSA,USB1_29,0,79.0,FINESTEERING,2163,389495.000,03004120,cdba,16407;SOL_COMPUTED,PSRDIFF,44.99917866083,-73.00053265120,30.3146,-29.6000,WGS84,0.5672,0.5055,1.0180,"1",4.000,0.000,8,8,8,0,00,08,00,01*bbded2d0
#BESTPOSA,USB1_29,0,77.5,FINESTEERING,2163,389496.000,03004120,cdba,16407;SOL_COMPUTED,PSRDIFF,44.99919000077,-73.00056718729,30.2913,-29.6000,WGS84,0.5672,0.5055,1.0180,"1",4.000,0.000,8,8,8,0,00,08,00,01*d4f3c7b7
#BESTPOSA,USB1_29,0,74.0,FINESTEERING,2163,389497.000,03004120,cdba,16407;SOL_COMPUTED,PSRDIFF,44.99920274983,-73.00060035437,30.1999,-29.6000,WGS84,0.5671,0.5055,1.0180,"1",4.000,0.000,8,8,8,0,00,08,00,01*4b00f4ec
#BESTPOSA,USB1_29,0,73.0,FINESTEERING,2163,389498.000,03004120,cdba,16407;SOL_COMPUTED,PSRDIFF,44.99921586287,-73.00063303364,30.2203,-29.6000,WGS84,0.5671,0.5055,1.0180,"1",4.000,0.000,8,8,8,0,00,08,00,01*41cc8d04
#BESTPOSA,USB1_29,0,73.0,FINESTEERING,2163,389499.000,03004120,cdba,16407;SOL_COMPUTED,PSRDIFF,44.99922977229,-73.00066570029,30.1528,-29.6000,WGS84,0.5670,0.5054,1.0180,"1",4.000,0.000,8,8,8,0,00,08,00,01*10a3c12e
#BESTPOSA,USB1_29,0,73.0,FINESTEERING,2163,389500.000,03004120,cdba,16407;SOL_COMPUTED,PSRDIFF,44.99924446830,-73.00069748008,30.1048,-29.6000,WGS84,0.5670,0.5054,1.0180,"1",4.000,0.000,8,8,8,0,00,08,00,01*930ba08d
#BESTPOSA,USB1_29,0,73.0,FINESTEERING,2163,389501.000,03004120,cdba,16407;SOL_COMPUTED,PSRDIFF,44.99925950293,-73.00072993446,30.1378,-29.6000,WGS84,0.5670,0.5054,1.0180,"1",4.000,0.000,8,8,8,0,00,08,00,01*79e038eb
#BESTPOSA,USB1_29,0,73.0,FINESTEERING,2163,389502.000,03004120,cdba,16407;SOL_COMPUTED,PSRDIFF,44.99927483424,-73.00076090600,30.0769,-29.6000,WGS84,0.5669,0.5054,1.0180,"1",4.000,0.000,8,8,8,0,00,08,00,01*2d2131e3
#BESTPOSA,USB1_29,0,75.0,FINESTEERING,2163,389503.000,03004120,cdba,16407;SOL_COMPUTED,PSRDIFF,44.99929110060,-73.00079037325,30.0280,-29.6000,WGS84,0.5669,0.5054,1.0180,"1",4.000,0.000,8,8,8,0,00,08,00,01*f5425f3d
#BESTPOSA,USB1_29,0,75.0,FINESTEERING,2163,389504.000,03004120,cdba,16407;SOL_COMPUTED,PSRDIFF,44.99930804022,-73.00081988079,29.9813,-29.6000,WGS84,0.5668,0.5053,1.0180,"1",4.000,0.000,8,8,8,0,00,08,00,01*e3b94b6a
#BESTPOSA,USB1_29,0,75.0,FINESTEERING,2163,389505.000,03004120,cdba,16407;SOL_COMPUTED,PSRDIFF,44.99932536158,-73.00084861868,30.0349,-29.6000,WGS84,0.5668,0.5053,1.0180,"1",4.000,0.000,8,8,8,0,00,08,00,01*cf6ca7ad
#BESTPOSA,USB1_29,0,77.0,FINESTEERING,2163,389506.000,03004120,cdba,16407;SOL_COMPUTED,PSRDIFF,44.99934341461,-73.00087712803,30.0510,-29.6000,WGS84,0.5668,0.5053,1.0180,"1",4.000,0.000,8,8,8,0,00,08,00,01*21b8a267
#BESTPOSA,USB1_29,0,78.5,FINESTEERING,2163,389507.000,03004120,cdba,16407;SOL_COMPUTED,PSRDIFF,44.99936192660,-73.00090494449,30.1509,-29.6000,WGS84,0.5667,0.5053,1.0180,"1",4.000,0.000,8,8,8,0,00,08,00,01*3c6708dd
#BESTPOSA,USB1_29,0,77.5,FINESTEERING,2163,389508.000,03004120,cdba,16407;SOL_COMPUTED,PSRDIFF,44.99938116613,-73.00093178752,30.1791,-29.6000,WGS84,0.5667,0.5052,1.0180,"1",4.000,0.000,8,8,8,0,00,08,00,01*7719a1cf
#BESTPOSA,USB1_29,0,74.5,FINESTEERING,2163,389509.000,03004120,cdba,16407;SOL_COMPUTED,PSRDIFF,44.99940142716,-73.00095679818,30.1060,-29.6000,WGS84,0.5667,0.5052,1.0181,"1",4.000,0.000,8,8,8,0,00,08,00,01*58791960
#BESTPOSA,USB1_29,0,74.5,FINESTEERING,2163,389510.000,03004120,cdba,16407;SOL_COMPUTED,PSRDIFF,44.99942209212,-73.00098121629,30.0835,-29.6000,WGS84,0.5666,0.5052,1.0181,"1",4.000,0.000,8,8,8,0,00,08,00,01*033c432a
#BESTPOSA,USB1_29,0,75.5,FINESTEERING,2163,389511.000,03004120,cdba,16407;SOL_COMPUTED,PSRDIFF,44.99944364842,-73.00100457299,29.9371,-29.6000,WGS84,0.5666,0.5052,1.0181,"1",4.000,0.000,8,8,8,0,00,08,00,01*5c5eb38b
#BESTPOSA,USB1_29,0,77.5,FINESTEERING,2163,389512.000,03004120,cdba,16407;SOL_COMPUTED,PSRDIFF,44.99946521724,-73.00102700189,29.9540,-29.6000,WGS84,0.5665,0.5052,1.0181,"1",4.000,0.000,8,8,8,0,00,08,00,01*484f174a
#BESTPOSA,USB1_29,0,74.5,FINESTEERING,2163,389513.000,03004120,cdba,16407;SOL_COMPUTED,PSRDIFF,44.99948728270,-73.00104877790,29.9521,-29.6000,WGS84,0.5665,0.5051,1.0181,"1",4.000,0.000,8,8,8,0,00,08,00,01*463c11c0
#BESTPOSA,USB1_29,0,74.5,FINESTEERING,2163,389514.000,03004120,cdba,16407;SOL_COMPUTED,PSRDIFF,44.99950994777,-73.00106985883,29.8708,-29.6000,WGS84,0.5665,0.5051,1.0181,"1",4.000,0.000,8,8,8,0,00,08,00,01*c0d9d3fd
#BESTPOSA,USB1_29,0,75.0,FINESTEERING,2163,389515.000,03004120,cdba,16407;SOL_COMPUTED,PSRDIFF,44.99953249338,-73.00109069789,29.8707,-29.6000,WGS84,0.5664,0.5051,1.0181,"1",4.000,0.000,8,8,8,0,00,08,00,01*17e423f9
#BESTPOSA,USB1_29,0,76.0,FINESTEERING,2163,389516.000,03004120,cdba,16407;SOL_COMPUTED,PSRDIFF,44.99955540288,-73.00111051038,29.9213,-29.6000,WGS84,0.5664,0.5051,1.0181,"1",4.000,0.000,8,8,8,0,00,08,00,01*2032884b
#BESTPOSA,USB1_29,0,76.0,FINESTEERING,2163,389517.000,03004120,cdba,16407;SOL_COMPUTED,PSRDIFF,44.99957887209,-73.00112908057,29.8986,-29.6000,WGS84,0.5664,0.5051,1.0181,"1",4.000,0.000,8,8,8,0,00,08,00,01*59bf4dbf
#BESTPOSA,USB1_29,0,78.5,FINESTEERING,2163,389518.000,03004120,cdba,16407;SOL_COMPUTED,PSRDIFF,44.99960270388,-73.00114608467,29.9441,-29.6000,WGS84,0.5663,0.5050,1.0181,"1",4.000,0.000,8,8,8,0,00,08,00,01*7582484c
#BESTPOSA,USB1_29,0,74.5,FINESTEERING,2163,389519.000,03004120,cdba,16407;SOL_COMPUTED,PSRDIFF,44.99962707710,-73.00116216442,29.9631,-29.6000,WGS84,0.5663,0.5050,1.0181,"1",4.000,0.000,8,8,8,0,00,08,00,01*4dd59aca
#BESTPOSA,USB1_29,0,74.5,FINESTEERING,2163,389520.000,03004120,cdba,16407;SOL_COMPUTED,PSRDIFF,44.99965204159,-73.00117707418,29.8916,-29.6000,WGS84,0.5663,0.5050,1.0181,"1",4.000,0.000,8,8,8,0,00,08,00,01*137c12a6
#BESTPOSA,USB1_29,0,75.0,FINESTEERING,2163,389521.000,03004120,cdba,16407;SOL_COMPUTED,PSRDIFF,44.99967751477,-73.00119088765,29.8326,-29.6000,WGS84,0.5662,0.5050,1.0181,"1",4.000,0.000,8,8,8,0,00,08,00,01*b0ebf73b
#BESTPOSA,USB1_29,0,75.0,FINESTEERING,2163,389522.000,03004120,cdba,16407;SOL_COMPUTED,PSRDIFF,44.99970309619,-73.00120396187,29.7869,-29.6000,WGS84,0.5662,0.5050,1.0181,"1",4.000,0.000,8,8,8,0,00,08,00,01*a9279153
#BESTPOSA,USB1_29,0,75.5,FINESTEERING,2163,389523.000,03004120,cdba,16407;SOL_COMPUTED,PSRDIFF,44.99972837111,-73.00121560936,29.8178,-29.6000,WGS84,0.5661,0.5049,1.0181,"1",4.000,0.000,8,8,8,0,00,08,00,01*afcbd7ae
#BESTPOSA,USB1_29,0,75.0,FINESTEERING,2163,389524.000,03004120,cdba,16407;SOL_COMPUTED,PSRDIFF,44.99975446347,-73.00122602861,29.7314,-29.6000,WGS84,0.5661,0.5049,1.0181,"1",4.000,0.000,8,8,8,0,00,08,00,01*7a02a3e4
#BESTPOSA,USB1_29,0,75.0,FINESTEERING,2163,389525.000,03004120,cdba,16407;SOL_COMPUTED,PSRDIFF,44.99978014935,-73.00123560589,29.7754,-29.6000,WGS84,0.5661,0.5049,1.0181,"1",4.000,0.000,8,8,8,0,00,08,00,01*db435511
#BESTPOSA,USB1_29,0,75.0,FINESTEERING,2163,389526.000,03004120,cdba,16407;SOL_COMPUTED,PSRDIFF,44.99980606649,-73.00124415108,29.8170,-29.6000,WGS84,0.5660,0.5049,1.0181,"1",4.000,0.000,8,8,8,0,00,08,00,01*c9d55b5a
#BESTPOSA,USB1_29,0,74.0,FINESTEERING,2163,389527.000,03004120,cdba,16407;SOL_COMPUTED,PSRDIFF,44.99983273864,-73.00125183239,29.8306,-29.6000,WGS84,0.5660,0.5049,1.0181,"1",4.000,0.000,8,8,8,0,00,08,00,01*86d00970
#BESTPOSA,USB1_29,0,74.0,FINESTEERING,2163,389528.000,03004120,cdba,16407;SOL_COMPUTED,PSRDIFF,44.99985919669,-73.00125865015,29.8830,-29.6000,WGS84,0.5659,0.5048,1.0181,"1",4.000,0.000,8,8,8,0,00,08,00,01*64494443
#BESTPOSA,USB1_29,0,75.5,FINESTEERING,2163,389529.000,03004120,cdba,16407;SOL_COMPUTED,PSRDIFF,44.99988594638,-73.00126425855,29.9059,-29.6000,WGS84,0.5659,0.5048,1.0181,"1",4.000,0.000,8,8,8,0,00,08,00,01*1baf71a2
#BESTPOSA,USB1_29,0,75.5,FINESTEERING,2163,389530.000,03004120,cdba,16407;SOL_COMPUTED,PSRDIFF,44.99991285847,-73.00126848769,29.8429,-29.6000,WGS84,0.5659,0.5048,1.0181,"1",4.000,0.000,8,8,8,0,00,08,00,01*05ba19a1
#BESTPOSA,USB1_29,0,75.5,FINESTEERING,2163,389531.000,03004120,cdba,16407;SOL_COMPUTED,PSRDIFF,44.99993935850,-73.00127115696,29.7428,-29.6000,WGS84,0.5658,0.5048,1.0181,"1",4.000,0.000,8,8,8,0,00,08,00,01*e5eb9e48
#BESTPOSA,USB1_29,0,76.5,FINESTEERING,2163,389532.000,03004120,cdba,16407;SOL_COMPUTED,PSRDIFF,44.99996669441,-73.00127249595,29.5889,-29.6000,WGS84,0.5658,0.5047,1.0181,"1",4.000,0.000,8,8,8,0,00,08,00,01*e82530b7
#BESTPOSA,USB1_29,0,75.0,FINESTEERING,2163,389533.000,03004120,cdba,16407;SOL_COMPUTED,PSRDIFF,44.99999381293,-73.00127300265,29.4442,-29.6000,WGS84,0.5658,0.5047,1.0181,"1",4.000,0.000,8,8,8,0,00,08,00,01*46679c90
#BESTPOSA,USB1_29,0,75.0,FINESTEERING,2163,389534.000,03004120,cdba,16407;SOL_COMPUTED,PSRDIFF,45.00002134801,-73.00127224868,29.3053,-29.6000,WGS84,0.5657,0.5047,1.0181,"1",4.000,0.000,8,8,8,0,00,08,00,01*2c4288fc
#BESTPOSA,USB1_29,0,74.5,FINESTEERING,2163,389535.000,03004120,cdba,16407;SOL_COMPUTED,PSRDIFF,45.00004800437,-73.00127123365,29.3216,-29.6000,WGS84,0.5657,0.5047,1.0181,"1",4.000,0.000,8,8,8,0,00,08,00,01*fbe9ca67
#BESTPOSA,USB1_29,0,74.5,FINESTEERING,2163,389536.000,03004120,cdba,16407;SOL_COMPUTED,PSRDIFF,45.00007438223,-73.00126910747,29.3270,-29.6000,WGS84,0.5656,0.5046,1.0181,"1",4.000,0.000,8,8,8,0,00,08,00,01*4fe2a276
#BESTPOSA,USB1_29,0,75.0,FINESTEERING,2163,389537.000,03004120,cdba,16407;SOL_COMPUTED,PSRDIFF,45.00010113719,-73.00126541881,29.3212,-29.6000,WGS84,0.5656,0.5046,1.0181,"1",4.000,0.000,8,8,8,0,00,08,00,01*65d9c940
#BESTPOSA,USB1_29,0,75.0,FINESTEERING,2163,389538.000,03004120,cdba,16407;SOL_COMPUTED,PSRDIFF,45.00011428866,-73.00125155238,27.7154,-29.6000,WGS84,0.6327,0.5221,1.0624,"1",4.000,0.000,8,7,7,0,00,08,00,01*74f2a252
#BESTPOSA,USB1_29,0,74.5,FINESTEERING,2163,389539.000,03004120,cdba,16407;SOL_COMPUTED,PSRDIFF,45.00014085966,-73.00124431567,27.6963,-29.6000,WGS84,0.6327,0.5221,1.0624,"1",4.000,0.000,8,7,7,0,00,08,00,01*bfbd08e3
#BESTPOSA,USB1_29,0,74.5,FINESTEERING,2163,389540.000,03004120,cdba,16407;SOL_COMPUTED,PSRDIFF,45.00016716694,-73.00123639616,27.6844,-29.6000,WGS84,0.6327,0.5220,1.0624,"1",4.000,0.000,8,7,7,0,00,08,00,01*0476bd50
#BESTPOSA,USB1_29,0,74.0,FINESTEERING,2163,389541.000,03004120,cdba,16407;SOL_COMPUTED,PSRDIFF,45.00019265674,-73.00122771746,27.6942,-29.6000,WGS84,0.6327,0.5220,1.0624,"1",4.000,0.000,8,7,7,0,00,08,00,01*13145bf3
#BESTPOSA,USB1_29,0,74.0,FINESTEERING,2163,389542.000,03004120,cdba,16407;SOL_COMPUTED,PSRDIFF,45.00021855746,-73.00121849102,27.7231,-29.6000,WGS84,0.6326,0.5220,1.0624,"1",4.000,0.000,8,7,7,0,00,08,00,01*2fa57436
#BESTPOSA,USB1_29,0,75.5,FINESTEERING,2163,389543.000,03004120,cdba,16407;SOL_COMPUTED,PSRDIFF,45.00024416314,-73.00120876108,27.6128,-29.6000,WGS84,0.6326,0.5220,1.0623,"1",4.000,0.000,8,7,7,0,00,08,00,01*a9fea91b
#BESTPOSA,USB1_29,0,74.5,FINESTEERING,2163,389544.000,03004120,cdba,16407;SOL_COMPUTED,PSRDIFF,45.00026940277,-73.00119706373,27.6157,-29.6000,WGS84,0.6326,0.5219,1.0623,"1",4.000,0.000,8,7,7,0,00,08,00,01*beb9602b
#BESTPOSA,USB1_29,0,74.5,FINESTEERING,2163,389545.000,03004120,cdba,16407;SOL_COMPUTED,PSRDIFF,45.00029503312,-73.00118402082,27.5693,-29.6000,WGS84,0.6326,0.5219,1.0623,"1",4.000,0.000,8,7,7,0,00,08,00,01*7507c289
#BESTPOSA,USB1_29,0,73.0,FINESTEERING,2163,389546.000,03004120,cdba,16407;SOL_COMPUTED,PSRDIFF,45.00031932865,-73.00116961534,27.6096,-29.6000,WGS84,0.6326,0.5219,1.0623,"1",4.000,0.000,8,7,7,0,00,08,00,01*fa89b8d0
#BESTPOSA,USB1_29,0,73.0,FINESTEERING,2163,389547.000,03004120,cdba,16407;SOL_COMPUTED,PSRDIFF,45.00034388937,-73.00115416674,27.6594,-29.6000,WGS84,0.6325,0.5219,1.0623,"1",4.000,0.000,8,7,7,0,00,08,00,01*f3fef877
#BESTPOSA,USB1_29,0,74.5,FINESTEERING,2163,389548.000,03004120,cdba,16407;SOL_COMPUTED,PSRDIFF,45.00036793892,-73.00113830583,27.5516,-29.6000,WGS84,0.6325,0.5219,1.0623,"1",4.000,0.000,8,7,7,0,00,08,00,01*27a8974b
#BESTPOSA,USB1_29,0,74.5,FINESTEERING,2163,389549.000,03004120,cdba,16407;SOL_COMPUTED,PSRDIFF,45.00039133444,-73.00112140661,27.5106,-29.6000,WGS84,0.6325,0.5218,1.0623,"1",4.000,0.000,8,7,7,0,00,08,00,01*8f32b0d5
#BESTPOSA,USB1_29,0,74.5,FINESTEERING,2163,389550.000,03004120,cdba,16407;SOL_COMPUTED,PSRDIFF,45.00041464795,-73.00110362183,27.4336,-29.6000,WGS84,0.6325,0.5218,1.0623,"1",4.000,0.000,8,7,7,0,00,08,00,01*31196233
#BESTPOSA,USB1_29,0,76.5,FINESTEERING,2163,389551.000,03004120,cdba,16407;SOL_COMPUTED,PSRDIFF,45.00043773296,-73.00108466394,27.4381,-29.6000,WGS84,0.6325,0.5218,1.0622,"1",4.000,0.000,8,7,7,0,00,08,00,01*1c06f759
#BESTPOSA,USB1_29,0,76.0,FINESTEERING,2163,389552.000,03004120,cdba,16407;SOL_COMPUTED,PSRDIFF,45.00046040181,-73.00106456890,27.5079,-29.6000,WGS84,0.6324,0.5218,1.0622,"1",4.000,0.000,8,7,7,0,00,08,00,01*c482d5c7
#BESTPOSA,USB1_29,0,76.0,FINESTEERING,2163,389553.000,03004120,cdba,16407;SOL_COMPUTED,PSRDIFF,45.00048280074,-73.00104342099,27.4561,-29.6000,WGS84,0.6324,0.5218,1.0622,"1",4.000,0.000,8,7,7,0,00,08,00,01*e2ff0cd2
#BESTPOSA,USB1_29,0,79.0,FINESTEERING,2163,389554.000,03004120,cdba,16407;SOL_COMPUTED,PSRDIFF,45.00050496196,-73.00102095900,27.3617,-29.6000,WGS84,0.6324,0.5217,1.0622,"1",4.000,0.000,8,7,7,0,00,08,00,01*d6f46e5d
#BESTPOSA,USB1_29,0,78.0,FINESTEERING,2163,389555.000,03004120,cdba,16407;SOL_COMPUTED,PSRDIFF,45.00052637404,-73.00099806260,27.3039,-29.6000,WGS84,0.6324,0.5217,1.0622,"1",4.000,0.000,8,7,7,0,00,08,00,01*15d7ed61
#BESTPOSA,USB1_29,0,76.5,FINESTEERING,2163,389556.000,03004120,cdba,16407;SOL_COMPUTED,PSRDIFF,45.00054746418,-73.00097371558,27.0778,-29.6000,WGS84,0.6324,0.5217,1.0622,"1",4.000,0.000,8,7,7,0,00,08,00,01*67742706
#BESTPOSA,USB1_29,0,76.5,FINESTEERING,2163,389557.000,03004120,cdba,16407;SOL_COMPUTED,PSRDIFF,45.00057524917,-73.00094718222,28.3642,-29.6000,WGS84,0.7895,0.5270,1.3442,"1",4.000,0.000,7,6,6,0,00,08,00,01*e27672ac
#BESTPOSA,USB1_29,0,77.0,FINESTEERING,2163,389558.000,03004120,cdba,16407;SOL_COMPUTED,PSRDIFF,45.00061582237,-73.00092561944,31.5775,-29.6000,WGS84,0.6055,0.5229,1.1314,"1",4.000,0.000,7,7,7,0,00,08,00,01*a2fef74b
#BESTPOSA,USB1_29,0,77.5,FINESTEERING,2163,389559.000,03004120,cdba,16407;SOL_COMPUTED,PSRDIFF,45.00063491060,-73.00089927674,31.5909,-29.6000,WGS84,0.6055,0.5229,1.1315,"1",4.000,0.000,7,7,7,0,00,08,00,01*c7780fe9
#BESTPOSA,USB1_29,0,77.0,FINESTEERING,2163,389560.000,03004120,cdba,16407;SOL_COMPUTED,PSRDIFF,45.00065350514,-73.00087281109,31.6574,-29.6000,WGS84,0.6055,0.5229,1.1317,"1",4.000,0.000,7,7,7,0,00,08,00,01*a2c92ca9
#BESTPOSA,USB1_29,0,77.0,FINESTEERING,2163,389561.000,03004120,cdba,16407;SOL_COMPUTED,PSRDIFF,45.00067132476,-73.00084552247,31.8048,-29.6000,WGS84,0.6054,0.5229,1.1318,"1",4.000,0.000,7,7,7,0,00,08,00,01*60f966f1
#BESTPOSA,USB1_29,0,75.5,FINESTEERING,2163,389562.000,03004120,cdba,16407;SOL_COMPUTED,PSRDIFF,45.00070206091,-73.00082778770,32.4129,-29.6000,WGS84,0.6767,0.5535,1.1370,"1",4.000,0.000,7,6,6,0,00,08,00,01*b8f009cb
#BESTPOSA,USB1_29,0,75.5,FINESTEERING,2163,389563.000,03004120,cdba,16407;SOL_COMPUTED,PSRDIFF,45.00071964343,-73.00079863805,32.3493,-29.6000,WGS84,0.6767,0.5535,1.1371,"1",4.000,0.000,7,6,6,0,00,08,00,01*4695e17e
#BESTPOSA,USB1_29,0,76.5,FINESTEERING,2163,389564.000,03004120,cdba,16407;SOL_COMPUTED,PSRDIFF,45.00073657864,-73.00076782972,32.3878,-29.6000,WGS84,0.6766,0.5535,1.1373,"1",4.000,0.000,7,6,6,0,00,08,00,01*3a509d90
#BESTPOSA,USB1_29,0,76.5,FINESTEERING,2163,389565.000,03004120,cdba,16407;SOL_COMPUTED,PSRDIFF,45.00075237889,-73.00073723596,32.3740,-29.6000,WGS84,0.6766,0.5534,1.1374,"1",4.000,0.000,7,6,6,0,00,08,00,01*5698a383
#BESTPOSA,USB1_29,0,78.0,FINESTEERING,2163,389566.000,03004120,cdba,16407;SOL_COMPUTED,PSRDIFF,45.00076769616,-73.00070608834,32.2576,-29.6000,WGS84,0.6765,0.5534,1.1376,"1",4.000,0.000,7,6,6,0,00,08,00,01*97b987cf
#BESTPOSA,USB1_29,0,78.0,FINESTEERING,2163,389567.000,03004120,cdba,16407;SOL_COMPUTED,PSRDIFF,45.00078208091,-73.00067383500,32.1789,-29.6000,WGS84,0.6765,0.5534,1.1377,"1",4.000,0.000,7,6,6,0,00,08,00,01*b916d3ab
#BESTPOSA,USB1_29,0,78.0,FINESTEERING,2163,389568.000,03004120,cdba,16407;SOL_COMPUTED,PSRDIFF,45.00079592124,-73.00064165894,32.1660,-29.6000,WGS84,0.6764,0.5534,1.1378,"1",4.000,0.000,7,6,6,0,00,08,00,01*f5bc19cd
#BESTPOSA,USB1_29,0,78.0,FINESTEERING,2163,389569.000,03004120,cdba,16407;SOL_COMPUTED,PSRDIFF,45.00080918136,-73.00060841866,32.1802,-29.6000,WGS84,0.6763,0.5534,1.1380,"1",4.000,0.000,7,6,6,0,00,08,00,01*0ca5c869
#BESTPOSA,USB1_29,0,78.5,FINESTEERING,2163,389570.000,03004120,cdba,16407;SOL_COMPUTED,PSRDIFF,45.00082174238,-73.00057467445,32.2425,-29.6000,WGS84,0.6763,0.5533,1.1381,"1",4.000,0.000,7,6,6,0,00,08,00,01*9bcc3b7a
#BESTPOSA,USB1_29,0,79.0,FINESTEERING,2163,389571.000,03004120,cdba,16407;SOL_COMPUTED,PSRDIFF,45.00083367109,-73.00054005020,32.4298,-29.6000,WGS84,0.6762,0.5533,1.1383,"1",4.000,0.000,7,6,6,0,00,08,00,01*532840ed
#BESTPOSA,USB1_29,0,77.0,FINESTEERING,2163,389572.000,03004120,cdba,16407;SOL_COMPUTED,PSRDIFF,45.00084473395,-73.00050533465,32.3566,-29.6000,WGS84,0.6762,0.5533,1.1384,"1",4.000,0.000,7,6,6,0,00,08,00,01*96191d70
#BESTPOSA,USB1_29,0,77.0,FINESTEERING,2163,389573.000,03004120,cdba,16407;SOL_COMPUTED,PSRDIFF,45.00085517782,-73.00046980740,32.3214,-29.6000,WGS84,0.6761,0.5533,1.1386,"1",4.000,0.000,7,6,6,0,00,08,00,01*9cc6c818
#BESTPOSA,USB1_29,0,77.5,FINESTEERING,2163,389574.000,03004120,cdba,16407;SOL_COMPUTED,PSRDIFF,45.00086508454,-73.00043444785,32.4255,-29.6000,WGS84,0.6761,0.5533,1.1387,"1",4.000,0.000,7,6,6,0,00,08,00,01*58a4f9d5
#BESTPOSA,USB1_29,0,78.5,FINESTEERING,2163,389575.000,03004120,cdba,16407;SOL_COMPUTED,PSRDIFF,45.00087443498,-73.00039894591,32.3070,-29.6000,WGS84,0.6760,0.5533,1.1389,"1",4.000,0.000,7,6,6,0,00,08,00,01*f8465253
#BESTPOSA,USB1_29,0,79.0,FINESTEERING,2163,389576.000,03004120,cdba,16407;SOL_COMPUTED,PSRDIFF,45.00088228085,-73.00036275827,32.3244,-29.6000,WGS84,0.6760,0.5532,1.1390,"1",4.000,0.000,7,6,6,0,00,08,00,01*f987675d
#BESTPOSA,USB1_29,0,78.0,FINESTEERING,2163,389577.000,03004120,cdba,16407;SOL_COMPUTED,PSRDIFF,45.00088980557,-73.00032708999,32.3899,-29.6000,WGS84,0.6759,0.5532,1.1391,"1",4.000,0.000,7,6,6,0,00,08,00,01*645a731f
#BESTPOSA,USB1_29,0,78.0,FINESTEERING,2163,389578.000,03004120,cdba,16407;SOL_COMPUTED,PSRDIFF,45.00089630527,-73.00028917371,32.2393,-29.6000,WGS84,0.6759,0.5532,1.1393,"1",4.000,0.000,7,6,6,0,00,08,00,01*64c7b603
#BESTPOSA,USB1_29,0,78.0,FINESTEERING,2163,389579.000,03004120,cdba,16407;SOL_COMPUTED,PSRDIFF,45.00090201712,-73.00025221826,32.2012,-29.6000,WGS84,0.6758,0.5532,1.1394,"1",4.000,0.000,7,6,6,0,00,08,00,01*6be7bc70
#BESTPOSA,USB1_29,0,78.5,FINESTEERING,2163,389580.000,03004120,cdba,16407;SOL_COMPUTED,PSRDIFF,45.00090729908,-73.00021437538,32.2290,-29.6000,WGS84,0.6758,0.5531,1.1395,"1",4.000,0.000,7,6,6,0,00,08,00,01*a29ef2d6
#BESTPOSA,USB1_29,0,78.5,FINESTEERING,2163,389581.000,03004120,cdba,16407;SOL_COMPUTED,PSRDIFF,45.00091139767,-73.00017641946,32.2543,-29.6000,WGS84,0.6757,0.5531,1.1397,"1",4.000,0.000,7,6,6,0,00,08,00,01*255f7f2e
#BESTPOSA,USB1_29,0,74.5,FINESTEERING,2163,389582.000,03004120,cdba,16407;SOL_COMPUTED,PSRDIFF,45.00091449250,-73.00013918187,32.4030,-29.6000,WGS84,0.6756,0.5531,1.1398,"1",4.000,0.000,7,6,6,0,00,08,00,01*f5e8a7c9
#BESTPOSA,USB1_29,0,74.5,FINESTEERING,2163,389583.000,03004120,cdba,16407;SOL_COMPUTED,PSRDIFF,45.00091635848,-73.00010168963,32.4516,-29.6000,WGS84,0.6756,0.5531,1.1400,"1",4.000,0.000,7,6,6,0,00,08,00,01*f3ba0417
#BESTPOSA,USB1_29,0,77.5,FINESTEERING,2163,389584.000,03004120,cdba,16407;SOL_COMPUTED,PSRDIFF,45.00091827716,-73.00006408250,32.4311,-29.6000,WGS84,0.6755,0.5531,1.1401,"1",4.000,0.000,7,6,6,0,00,08,00,01*809472f7
#BESTPOSA,USB1_29,0,76.5,FINESTEERING,2163,389585.000,03004120,cdba,16407;SOL_COMPUTED,PSRDIFF,45.00091935259,-73.00002617741,32.4765,-29.6000,WGS84,0.6755,0.5531,1.1403,"1",4.000,0.000,7,6,6,0,00,08,00,01*f00f5fc5
#BESTPOSA,USB1_29,0,76.5,FINESTEERING,2163,389586.000,03004120,cdba,16407;SOL_COMPUTED,PSRDIFF,45.00091982648,-72.99998911123,32.4634,-29.6000,WGS84,0.6754,0.5530,1.1404,"1",4.000,0.000,7,6,6,0,00,08,00,01*3e05ce39
#BESTPOSA,USB1_29,0,78.0,FINESTEERING,2163,389587.000,03004120,cdba,16407;SOL_COMPUTED,PSRDIFF,45.00091958326,-72.99995124812,32.4713,-29.6000,WGS84,0.6754,0.5530,1.1406,"1",4.000,0.000,7,6,6,0,00,08,00,01*b2cb420f
#BESTPOSA,USB1_29,0,78.0,FINESTEERING,2163,389588.000,03004120,cdba,16407;SOL_COMPUTED,PSRDIFF,45.00091812932,-72.99991387387,32.5499,-29.6000,WGS84,0.6753,0.5530,1.1406,"1",3.000,0.000,7,6,6,0,00,08,00,01*c8e52d59
#BESTPOSA,USB1_29,0,77.0,FINESTEERING,2163,389589.000,03004120,cdba,16407;SOL_COMPUTED,PSRDIFF,45.00091573876,-72.99987674676,32.6662,-29.6000,WGS84,0.6753,0.5530,1.1409,"1",4.000,0.000,7,6,6,0,00,08,00,01*bd2f2e13
#BESTPOSA,USB1_29,0,77.0,FINESTEERING,2163,389590.000,03004120,cdba,16407;SOL_COMPUTED,PSRDIFF,45.00091236717,-72.99983880009,32.6999,-29.6000,WGS84,0.6752,0.5530,1.1410,"1",4.000,0.000,7,6,6,0,00,08,00,01*4039e74a
#BESTPOSA,USB1_29,0,77.5,FINESTEERING,2163,389591.000,03004120,cdba,16407;SOL_COMPUTED,PSRDIFF,45.00090875305,-72.99980136896,32.7634,-29.6000,WGS84,0.6752,0.5529,1.1411,"1",4.000,0.000,7,6,6,0,00,08,00,01*7a9924df
#BESTPOSA,USB1_29,0,77.5,FINESTEERING,2163,389592.000,03004120,cdba,16407;SOL_COMPUTED,PSRDIFF,45.00090463813,-72.99976349826,32.6859,-29.6000,WGS84,0.6751,0.5529,1.1413,"1",4.000,0.000,7,6,6,0,00,08,00,01*f2fffcc9
#BESTPOSA,USB1_29,0,77.5,FINESTEERING,2163,389593.000,03004120,cdba,16407;SOL_COMPUTED,PSRDIFF,45.00089903516,-72.99972544260,32.5313,-29.6000,WGS84,0.6751,0.5529,1.1414,"1",4.000,0.000,7,6,6,0,00,08,00,01*537cada9
#BESTPOSA,USB1_29,0,78.5,FINESTEERING,2163,389594.000,03004120,cdba,16407;SOL_COMPUTED,PSRDIFF,45.00089316288,-72.99968861232,32.4146,-29.6000,WGS84,0.6750,0.5529,1.1416,"1",4.000,0.000,7,6,6,0,00,08,00,01*26999b4a
#BESTPOSA,USB1_29,0,78.5,FINESTEERING,2163,389595.000,03004120,cdba,16407;SOL_COMPUTED,PSRDIFF,45.00089648308,-72.99963048529,35.4533,-29.6000,WGS84,0.7061,0.6291,1.2571,"1",4.000,0.000,7,5,5,0,00,08,00,01*1e705135
#BESTPOSA,USB1_29,0,74.5,FINESTEERING,2163,389596.000,03004120,cdba,16407;SOL_COMPUTED,PSRDIFF,45.00088864031,-72.99959410631,35.5993,-29.6000,WGS84,0.7061,0.6291,1.2572,"1",4.000,0.000,7,5,5,0,00,08,00,01*9930fd09
#BESTPOSA,USB1_29,0,74.5,FINESTEERING,2163,389597.000,03004120,cdba,16407;SOL_COMPUTED,PSRDIFF,45.00088012988,-72.99955887727,35.6838,-29.6000,WGS84,0.7061,0.6291,1.2574,"1",4.000,0.000,7,5,5,0,00,08,00,01*38224d31
#BESTPOSA,USB1_29,0,74.0,FINESTEERING,2163,389598.000,03004120,cdba,16407;SOL_COMPUTED,PSRDIFF,45.00087087287,-72.99952335314,35.8300,-29.6000,WGS84,0.7060,0.6291,1.2576,"1",3.000,0.000,7,5,5,0,00,08,00,01*8254ee08
#BESTPOSA,USB1_29,0,74.0,FINESTEERING,2163,389599.000,03004120,cdba,16407;SOL_COMPUTED,PSRDIFF,45.00086088322,-72.99948787891,35.9746,-29.6000,WGS84,0.7061,0.6291,1.2578,"1",4.000,0.000,7,5,5,0,00,08,00,01*7139a62d
#BESTPOSA,USB1_29,0,75.0,FINESTEERING,2163,389600.000,03004120,cdba,16407;SOL_COMPUTED,PSRDIFF,45.00085038770,-72.99945364776,36.0056,-29.6000,WGS84,0.7061,0.6292,1.2581,"1",4.000,0.000,7,5,5,0,00,08,00,01*75678afd
#BESTPOSA,USB1_29,0,76.0,FINESTEERING,2163,389601.000,03004120,cdba,16407;SOL_COMPUTED,PSRDIFF,45.00083908463,-72.99941933631,36.1607,-29.6000,WGS84,0.7060,0.6292,1.2582,"1",4.000,0.000,7,5,5,0,00,08,00,01*c662063d
#BESTPOSA,USB1_29,0,76.0,FINESTEERING,2163,389602.000,03004120,cdba,16407;SOL_COMPUTED,PSRDIFF,45.00082722841,-72.99938600045,36.1990,-29.6000,WGS84,0.7060,0.6292,1.2584,"1",4.000,0.000,7,5,5,0,00,08,00,01*a5cc798f
#BESTPOSA,USB1_29,0,76.5,FINESTEERING,2163,389603.000,03004120,cdba,16407;SOL_COMPUTED,PSRDIFF,45.00081461790,-72.99935328357,36.1405,-29.6000,WGS84,0.7060,0.6292,1.2586,"1",4.000,0.000,7,5,5,0,00,08,00,01*9a700121
#BESTPOSA,USB1_29,0,76.5,FINESTEERING,2163,389604.000,03004120,cdba,16407;SOL_COMPUTED,PSRDIFF,45.00080084744,-72.99932004049,36.2036,-29.6000,WGS84,0.7060,0.6292,1.2588,"1",4.000,0.000,7,5,5,0,00,08,00,01*78abd45d
#BESTPOSA,USB1_29,0,76.0,FINESTEERING,2163,389605.000,03004120,cdba,16407;SOL_COMPUTED,PSRDIFF,45.00078634358,-72.99928882636,36.1232,-29.6000,WGS84,0.7060,0.6292,1.2590,"1",4.000,0.000,7,5,5,0,00,08,00,01*ca614613
#BESTPOSA,USB1_29,0,75.0,FINESTEERING,2163,389606.000,03004120,cdba,16407;SOL_COMPUTED,PSRDIFF,45.00077158336,-72.99925707149,36.2181,-29.6000,WGS84,0.7060,0.6293,1.2592,"1",4.000,0.000,7,5,5,0,00,08,00,01*5ac56f5e
#BESTPOSA,USB1_29,0,75.0,FINESTEERING,2163,389607.000,03004120,cdba,16407;SOL_COMPUTED,PSRDIFF,45.00075589202,-72.99922683583,36.3096,-29.6000,WGS84,0.7060,0.6292,1.2593,"1",3.000,0.000,7,5,5,0,00,08,00,01*80a443d0
#BESTPOSA,USB1_29,0,77.0,FINESTEERING,2163,389608.000,03004120,cdba,16407;SOL_COMPUTED,PSRDIFF,45.00073991825,-72.99919658408,36.3696,-29.6000,WGS84,0.7060,0.6292,1.2595,"1",3.000,0.000,7,5,5,0,00,08,00,01*c75c65ec
#BESTPOSA,USB1_29,0,76.0,FINESTEERING,2163,389609.000,03004120,cdba,16407;SOL_COMPUTED,PSRDIFF,45.00072303258,-72.99916768956,36.3648,-29.6000,WGS84,0.7060,0.6293,1.2598,"1",4.000,0.000,7,5,5,0,00,08,00,01*fb0049a4
#BESTPOSA,USB1_29,0,74.0,FINESTEERING,2163,389610.000,03004120,cdba,16407;SOL_COMPUTED,PSRDIFF,45.00070542210,-72.99913925112,36.3408,-29.6000,WGS84,0.7060,0.6293,1.2599,"1",3.000,0.000,7,5,5,0,00,08,00,01*b67ea2e2
#BESTPOSA,USB1_29,0,74.0,FINESTEERING,2163,389611.000,03004120,cdba,16407;SOL_COMPUTED,PSRDIFF,45.00068759214,-72.99911117542,36.4060,-29.6000,WGS84,0.7060,0.6293,1.2602,"1",4.000,0.000,7,5,5,0,00,08,00,01*a9910670
#BESTPOSA,USB1_29,0,76.0,FINESTEERING,2163,389612.000,03004120,cdba,16407;SOL_COMPUTED,PSRDIFF,45.00066894358,-72.99908406674,36.5891,-29.6000,WGS84,0.7060,0.6293,1.2603,"1",3.000,0.000,7,5,5,0,00,08,00,01*c07fc345
#BESTPOSA,USB1_29,0,76.0,FINESTEERING,2163,389613.000,03004120,cdba,16407;SOL_COMPUTED,PSRDIFF,45.00064916271,-72.99905739324,36.7636,-29.6000,WGS84,0.7060,0.6293,1.2605,"1",3.000,0.000,7,5,5,0,00,08,00,01*bb528d8a
#BESTPOSA,USB1_29,0,76.5,FINESTEERING,2163,389614.000,03004120,cdba,16407;SOL_COMPUTED,PSRDIFF,45.00062938888,-72.99903146335,36.8385,-29.6000,WGS84,0.7060,0.6294,1.2608,"1",4.000,0.000,7,5,5,0,00,08,00,01*6cd105d9
#BESTPOSA,USB1_29,0,77.0,FINESTEERING,2163,389615.000,03004120,cdba,16407;SOL_COMPUTED,PSRDIFF,45.00060907472,-72.99900731114,36.9020,-29.6000,WGS84,0.7060,0.6294,1.2610,"1",4.000,0.000,7,5,5,0,00,08,00,01*9b07909a
#BESTPOSA,USB1_29,0,78.0,FINESTEERING,2163,389616.000,03004120,cdba,16407;SOL_COMPUTED,PSRDIFF,45.00058818029,-72.99898349183,37.1366,-29.6000,WGS84,0.7060,0.6294,1.2611,"1",3.000,0.000,7,5,5,0,00,08,00,01*cd0cc735
#BESTPOSA,USB1_29,0,77.5,FINESTEERING,2163,389617.000,03004120,cdba,16407;SOL_COMPUTED,PSRDIFF,45.00056641517,-72.99896164762,37.2352,-29.6000,WGS84,0.7060,0.6294,1.2613,"1",3.000,0.000,7,5,5,0,00,08,00,01*338567f2
#BESTPOSA,USB1_29,0,75.0,FINESTEERING,2163,389618.000,03004120,cdba,16407;SOL_COMPUTED,PSRDIFF,45.00054466289,-72.99893973796,37.3855,-29.6000,WGS84,0.7060,0.6294,1.2615,"1",3.000,0.000,7,5,5,0,00,08,00,01*7ebf15d3
#BESTPOSA,USB1_29,0,75.0,FINESTEERING,2163,389619.000,03004120,cdba,16407;SOL_COMPUTED,PSRDIFF,45.00052293887,-72.99891909214,37.3328,-29.6000,WGS84,0.7060,0.6294,1.2617,"1",3.000,0.000,7,5,5,0,00,08,00,01*603b9266
#BESTPOSA,USB1_29,0,75.5,FINESTEERING,2163,389620.000,03004120,cdba,16407;SOL_COMPUTED,PSRDIFF,45.00050131481,-72.99889912846,37.3984,-29.6000,WGS84,0.7060,0.6295,1.2619,"1",3.000,0.000,7,5,5,0,00,08,00,01*54550637
#BESTPOSA,USB1_29,0,75.5,FINESTEERING,2163,389621.000,03004120,cdba,16407;SOL_COMPUTED,PSRDIFF,45.00047829985,-72.99888083879,37.3831,-29.6000,WGS84,0.7059,0.6295,1.2621,"1",3.000,0.000,7,5,5,0,00,08,00,01*ac465319
#BESTPOSA,USB1_29,0,76.0,FINESTEERING,2163,389622.000,03004120,cdba,16407;SOL_COMPUTED,PSRDIFF,45.00045447177,-72.99886319954,37.4184,-29.6000,WGS84,0.7060,0.6295,1.2623,"1",3.000,0.000,7,5,5,0,00,08,00,01*92f9c239
#BESTPOSA,USB1_29,0,76.5,FINESTEERING,2163,389623.000,03004120,cdba,16407;SOL_COMPUTED,PSRDIFF,45.00043029586,-72.99884644998,37.5354,-29.6000,WGS84,0.7060,0.6295,1.2625,"1",3.000,0.000,7,5,5,0,00,08,00,01*80c16c27
#BESTPOSA,USB1_29,0,75.0,FINESTEERING,2163,389624.000,03004120,cdba,16407;SOL_COMPUTED,PSRDIFF,45.00040635692,-72.99883032097,37.6391,-29.6000,WGS84,0.7060,0.6295,1.2627,"1",3.000,0.000,7,5,5,0,00,08,00,01*0286eb0b
#BESTPOSA,USB1_29,0,75.0,FINESTEERING,2163,389625.000,03004120,cdba,16407;SOL_COMPUTED,PSRDIFF,45.00038244002,-72.99881579709,37.7209,-29.6000,WGS84,0.7060,0.6295,1.2629,"1",3.000,0.000,7,5,5,0,00,08,00,01*465115eb
#BESTPOSA,USB1_29,0,76.0,FINESTEERING,2163,389626.000,03004120,cdba,16407;SOL_COMPUTED,PSRDIFF,45.00035806387,-72.99880178999,37.8219,-29.6000,WGS84,0.7060,0.6296,1.2631,"1",3.000,0.000,7,5,5,0,00,08,00,01*023c7328
#BESTPOSA,USB1_29,0,76.0,FINESTEERING,2163,389627.000,03004120,cdba,16407;SOL_COMPUTED,PSRDIFF,45.00033313127,-72.99878900793,37.8661,-29.6000,WGS84,0.7060,0.6296,1.2633,"1",3.000,0.000,7,5,5,0,00,08,00,01*f7570315
#BESTPOSA,USB1_29,0,78.5,FINESTEERING,2163,389628.000,03004120,cdba,16407;SOL_COMPUTED,PSRDIFF,45.00030784234,-72.99877741142,37.8655,-29.6000,WGS84,0.7060,0.6296,1.2636,"1",4.000,0.000,7,5,5,0,00,08,00,01*f0260942
#BESTPOSA,USB1_29,0,77.0,FINESTEERING,2163,389629.000,03004120,cdba,16407;SOL_COMPUTED,PSRDIFF,45.00028159693,-72.99876718658,37.9199,-29.6000,WGS84,0.7060,0.6296,1.2637,"1",3.000,0.000,7,5,5,0,00,08,00,01*37e7d2d0
#BESTPOSA,USB1_29,0,76.0,FINESTEERING,2163,389630.000,03004120,cdba,16407;SOL_COMPUTED,PSRDIFF,45.00025538139,-72.99875843198,37.9852,-29.6000,WGS84,0.7060,0.6296,1.2639,"1",3.000,0.000,7,5,5,0,00,08,00,01*10e99e8c
#BESTPOSA,USB1_29,0,76.0,FINESTEERING,2163,389631.000,03004120,cdba,16407;SOL_COMPUTED,PSRDIFF,45.00022885176,-72.99875016323,38.2847,-29.6000,WGS84,0.7060,0.6297,1.2641,"1",3.000,0.000,7,5,5,0,00,08,00,01*2a6337fd
#BESTPOSA,USB1_29,0,76.5,FINESTEERING,2163,389632.000,03004120,cdba,16407;SOL_COMPUTED,PSRDIFF,45.00020263870,-72.99874297356,38.4587,-29.6000,WGS84,0.7060,0.6297,1.2643,"1",3.000,0.000,7,5,5,0,00,08,00,01*7642a3ca
#BESTPOSA,USB1_29,0,76.5,FINESTEERING,2163,389633.000,03004120,cdba,16407;SOL_COMPUTED,PSRDIFF,45.00017638825,-72.99873737285,38.5978,-29.6000,WGS84,0.7060,0.6297,1.2645,"1",3.000,0.000,7,5,5,0,00,08,00,01*93b36158
#BESTPOSA,USB1_29,0,76.5,FINESTEERING,2163,389634.000,03004120,cdba,16407;SOL_COMPUTED,PSRDIFF,45.00015027574,-72.99873329693,38.6506,-29.6000,WGS84,0.7060,0.6297,1.2647,"1",3.000,0.000,7,5,5,0,00,08,00,01*e8014865
#BESTPOSA,USB1_29,0,78.5,FINESTEERING,2163,389635.000,03004120,cdba,16407;SOL_COMPUTED,PSRDIFF,45.00012399278,-72.99872839533,38.6885,-29.6000,WGS84,0.7060,0.6297,1.2649,"1",3.000,0.000,7,5,5,0,00,08,00,01*32239363
#BESTPOSA,USB1_29,0,79.0,FINESTEERING,2163,389636.000,03004120,cdba,16407;SOL_COMPUTED,PSRDIFF,45.00009768060,-72.99872473165,38.7250,-29.6000,WGS84,0.7060,0.6298,1.2651,"1",3.000,0.000,7,5,5,0,00,08,00,01*404335af
#BESTPOSA,USB1_29,0,79.5,FINESTEERING,2163,389637.000,03004120,cdba,16407;SOL_COMPUTED,PSRDIFF,45.00007136791,-72.99872280138,38.7710,-29.6000,WGS84,0.7060,0.6298,1.2653,"1",3.000,0.000,7,5,5,0,00,08,00,01*badea87c
#BESTPOSA,USB1_29,0,79.0,FINESTEERING,2163,389638.000,03004120,cdba,16407;SOL_COMPUTED,PSRDIFF,45.00004493288,-72.99872328340,38.8344,-29.6000,WGS84,0.7060,0.6298,1.2655,"1",3.000,0.000,7,5,5,0,00,08,00,01*596e979a
#BESTPOSA,USB1_29,0,76.0,FINESTEERING,2163,389639.000,03004120,cdba,16407;SOL_COMPUTED,PSRDIFF,45.00001785044,-72.99872472207,38.9347,-29.6000,WGS84,0.7060,0.6298,1.2657,"1",3.000,0.000,7,5,5,0,00,08,00,01*3dcb8e53
#BESTPOSA,USB1_29,0,76.0,FINESTEERING,2163,389640.000,03004120,cdba,16407;SOL_COMPUTED,PSRDIFF,44.99999111067,-72.99872703832,38.9923,-29.6000,WGS84,0.7060,0.6298,1.2659,"1",3.000,0.000,7,5,5,0,00,08,00,01*fba0f2cf
#BESTPOSA,USB1_29,0,77.0,FINESTEERING,2163,389641.000,03004120,cdba,16407;SOL_COMPUTED,PSRDIFF,44.99996431204,-72.99873039854,38.9440,-29.6000,WGS84,0.7060,0.6298,1.2661,"1",3.000,0.000,7,5,5,0,00,08,00,01*31149440
#BESTPOSA,USB1_29,0,75.0,FINESTEERING,2163,389642.000,03004120,cdba,16407;SOL_COMPUTED,PSRDIFF,44.99993794190,-72.99873549806,38.9830,-29.6000,WGS84,0.7060,0.6298,1.2663,"1",3.000,0.000,7,5,5,0,00,08,00,01*0d6ffba1
#BESTPOSA,USB1_29,0,75.0,FINESTEERING,2163,389643.000,03004120,cdba,16407;SOL_COMPUTED,PSRDIFF,44.99991168196,-72.99874113982,39.0749,-29.6000,WGS84,0.7059,0.6299,1.2665,"1",3.000,0.000,7,5,5,0,00,08,00,01*5d05cf2c
#BESTPOSA,USB1_29,0,75.5,FINESTEERING,2163,389644.000,03004120,cdba,16407;SOL_COMPUTED,PSRDIFF,44.99988544751,-72.99874794103,39.1678,-29.6000,WGS84,0.7060,0.6299,1.2667,"1",3.000,0.000,7,5,5,0,00,08,00,01*5136628c
#BESTPOSA,USB1_29,0,75.5,FINESTEERING,2163,389645.000,03004120,cdba,16407;SOL_COMPUTED,PSRDIFF,44.99985860722,-72.99875527304,39.1405,-29.6000,WGS84,0.7059,0.6299,1.2669,"1",3.000,0.000,7,5,5,0,00,08,00,01*13c5b97d
#BESTPOSA,USB1_29,0,77.5,FINESTEERING,2163,389646.000,03004120,cdba,16407;SOL_COMPUTED,PSRDIFF,44.99983192117,-72.99876407336,39.1577,-29.6000,WGS84,0.7059,0.6299,1.2671,"1",3.000,0.000,7,5,5,0,00,08,00,01*f49dd9bd
#BESTPOSA,USB1_29,0,78.5,FINESTEERING,2163,389647.000,03004120,cdba,16407;SOL_COMPUTED,PSRDIFF,44.99980581582,-72.99877451476,39.0479,-29.6000,WGS84,0.7059,0.6299,1.2673,"1",3.000,0.000,7,5,5,0,00,08,00,01*e4ad9c7e
#BESTPOSA,USB1_29,0,78.0,FINESTEERING,2163,389648.000,03004120,cdba,16407;SOL_COMPUTED,PSRDIFF,44.99977992019,-72.99878572564,39.0378,-29.6000,WGS84,0.7060,0.6300,1.2675,"1",4.000,0.000,7,5,5,0,00,08,00,01*cdae98b0
#BESTPOSA,USB1_29,0,78.0,FINESTEERING,2163,389649.000,03004120,cdba,16407;SOL_COMPUTED,PSRDIFF,44.99975486631,-72.99879826539,38.9622,-29.6000,WGS84,0.7059,0.6300,1.2677,"1",3.000,0.000,7,5,5,0,00,08,00,01*015d0372
#BESTPOSA,USB1_29,0,79.0,FINESTEERING,2163,389650.000,03004120,cdba,16407;SOL_COMPUTED,PSRDIFF,44.99972915957,-72.99881072493,39.0701,-29.6000,WGS84,0.7059,0.6300,1.2679,"1",3.000,0.000,7,5,5,0,00,08,00,01*3588fe6c
#BESTPOSA,USB1_29,0,79.5,FINESTEERING,2163,389651.000,03004120,cdba,16407;SOL_COMPUTED,PSRDIFF,44.99970406716,-72.99882465145,39.0479,-29.6000,WGS84,0.7059,0.6300,1.2681,"1",3.000,0.000,7,5,5,0,00,08,00,01*3e143f2b
#BESTPOSA,USB1_29,0,79.5,FINESTEERING,2163,389652.000,03004120,cdba,16407;SOL_COMPUTED,PSRDIFF,44.99967929488,-72.99883994221,39.0384,-29.6000,WGS84,0.7059,0.6300,1.2683,"1",3.000,0.000,7,5,5,0,00,08,00,01*e65799eb
#BESTPOSA,USB1_29,0,79.5,FINESTEERING,2163,389653.000,03004120,cdba,16407;SOL_COMPUTED,PSRDIFF,44.99965506006,-72.99885665835,39.0770,-29.6000,WGS84,0.7059,0.6300,1.2685,"1",3.000,0.000,7,5,5,0,00,08,00,01*2b560856
#BESTPOSA,USB1_29,0,79.5,FINESTEERING,2163,389654.000,03004120,cdba,16407;SOL_COMPUTED,PSRDIFF,44.99963093839,-72.99887377218,39.0349,-29.6000,WGS84,0.7059,0.6301,1.2687,"1",3.000,0.000,7,5,5,0,00,08,00,01*502bc453
#BESTPOSA,USB1_29,0,78.5,FINESTEERING,2163,389655.000,03004120,cdba,16407;SOL_COMPUTED,PSRDIFF,44.99954275956,-72.99899454628,42.1235,-29.6000,WGS84,0.8722,0.7938,1.4422,"1",3.000,0.000,7,5,5,0,00,08,00,01*452f09ef
#BESTPOSA,USB1_29,0,78.5,FINESTEERING,2163,389656.000,03004120,cdba,16407;SOL_COMPUTED,PSRDIFF,44.99951983541,-72.99901306988,41.9189,-29.6000,WGS84,0.8720,0.7937,1.4423,"1",3.000,0.000,7,5,5,0,00,08,00,01*9c983f90
#BESTPOSA,USB1_29,0,75.5,FINESTEERING,2163,389657.000,03004120,cdba,16407;SOL_COMPUTED,PSRDIFF,44.99949807986,-72.99903323233,41.7074,-29.6000,WGS84,0.8718,0.7936,1.4424,"1",3.000,0.000,7,5,5,0,00,08,00,01*53cfa797
#BESTPOSA,USB1_29,0,75.5,FINESTEERING,2163,389658.000,03004120,cdba,16407;SOL_COMPUTED,PSRDIFF,44.99947570994,-72.99905419098,41.6412,-29.6000,WGS84,0.8717,0.7934,1.4425,"1",3.000,0.000,7,5,5,0,00,08,00,01*406bb8c1
#BESTPOSA,USB1_29,0,63.0,FINESTEERING,2163,389659.000,03004120,cdba,16407;SOL_COMPUTED,PSRDIFF,44.99945369256,-72.99907722467,41.7238,-29.6000,WGS84,0.8715,0.7933,1.4427,"1",3.000,0.000,7,5,5,0,00,08,00,01*e7451367
#BESTPOSA,USB1_29,0,63.0,FINESTEERING,2163,389660.000,03004120,cdba,16407;SOL_COMPUTED,PSRDIFF,44.99943171996,-72.99910115678,41.9272,-29.6000,WGS84,0.8713,0.7932,1.4428,"1",3.000,0.000,7,5,5,0,00,08,00,01*e7277506
#BESTPOSA,USB1_29,0,79.0,FINESTEERING,2163,389661.000,03004120,cdba,16407;SOL_COMPUTED,PSRDIFF,44.99941124134,-72.99912522625,41.9542,-29.6000,WGS84,0.8711,0.7930,1.4429,"1",3.000,0.000,7,5,5,0,00,08,00,01*e40db2c3
#BESTPOSA,USB1_29,0,78.0,FINESTEERING,2163,389662.000,03004120,cdba,16407;SOL_COMPUTED,PSRDIFF,44.99939154518,-72.99914882710,41.9171,-29.6000,WGS84,0.8709,0.7929,1.4430,"1",3.000,0.000,8,5,5,0,00,08,00,01*30ab4942
#BESTPOSA,USB1_29,0,78.0,FINESTEERING,2163,389663.000,03004120,cdba,16407;SOL_COMPUTED,PSRDIFF,44.99937307453,-72.99917291237,41.6726,-29.6000,WGS84,0.8707,0.7928,1.4431,"1",3.000,0.000,7,5,5,0,00,08,00,01*08b104be
#BESTPOSA,USB1_29,0,79.5,FINESTEERING,2163,389664.000,03004120,cdba,16407;SOL_COMPUTED,PSRDIFF,44.99935402562,-72.99919871147,41.6648,-29.6000,WGS84,0.8706,0.7926,1.4432,"1",3.000,0.000,7,5,5,0,00,08,00,01*1738d939
#BESTPOSA,USB1_29,0,79.0,FINESTEERING,2163,389665.000,03004120,cdba,16407;SOL_COMPUTED,PSRDIFF,44.99933562624,-72.99922609400,41.6812,-29.6000,WGS84,0.8704,0.7925,1.4434,"1",3.000,0.000,7,5,5,0,00,08,00,01*670025d5
#BESTPOSA,USB1_29,0,78.5,FINESTEERING,2163,389666.000,03004120,cdba,16407;SOL_COMPUTED,PSRDIFF,44.99931686662,-72.99925453216,41.7938,-29.6000,WGS84,0.8702,0.7924,1.4435,"1",3.000,0.000,7,5,5,0,00,08,00,01*9488f300
#BESTPOSA,USB1_29,0,78.5,FINESTEERING,2163,389667.000,03004120,cdba,16407;SOL_COMPUTED,PSRDIFF,44.99929920064,-72.99928383738,41.8920,-29.6000,WGS84,0.8700,0.7922,1.4436,"1",3.000,0.000,7,5,5,0,00,08,00,01*d5870995
#BESTPOSA,USB1_29,0,78.0,FINESTEERING,2163,389668.000,03004120,cdba,16407;SOL_COMPUTED,PSRDIFF,44.99928213697,-72.99931348178,41.9551,-29.6000,WGS84,0.8698,0.7921,1.4437,"1",3.000,0.000,7,5,5,0,00,08,00,01*c1a92d08
#BESTPOSA,USB1_29,0,78.0,FINESTEERING,2163,389669.000,03004120,cdba,16407;SOL_COMPUTED,PSRDIFF,44.99926713813,-72.99934239780,41.7961,-29.6000,WGS84,0.8697,0.7920,1.4438,"1",3.000,0.000,7,5,5,0,00,08,00,01*255a62bf
